{"sensorSN": "null", "sensorType": "GPS6000", "data": {"valid": "1", "utc": "022518.60", "latitude": "3444.4821916S", "_RAW": "$GPVTG,89.726,T,89.726,M,0.003,N,0.006,K,A*26\r\n", "grades_from_north": "89.726", "longitude": "07109.4049853W", "speed": "0.006"}, "timestamp": 1517624718.773656, "sensorID": "04"}
{"sensorSN": "null", "sensorType": "GPS6000", "data": {"valid": "1", "utc": "022519.70", "latitude": "3444.4821876S", "_RAW": "$GPGGA,022519.70,3444.4821876,S,07109.4049981,W,1,10,5.9,216.327,M,24.30,M,,*55\r\n", "grades_from_north": "82.666", "longitude": "07109.4049981W", "speed": "0.005"}, "timestamp": 1517624719.811651, "sensorID": "04"}
{"sensorSN": "null", "sensorType": "GPS6000", "data": {"valid": "1", "utc": "022520.70", "latitude": "3444.4821893S", "_RAW": "$GPGGA,022520.70,3444.4821893,S,07109.4049956,W,1,10,5.9,216.328,M,24.30,M,,*51\r\n", "grades_from_north": "83.625", "longitude": "07109.4049956W", "speed": "0.005"}, "timestamp": 1517624720.862621, "sensorID": "04"}
{"sensorSN": "null", "sensorType": "GPS6000", "data": {"valid": "1", "utc": "022521.80", "latitude": "3444.4821841S", "_RAW": "$GPVTG,68.707,T,68.707,M,0.003,N,0.005,K,A*25\r\n", "grades_from_north": "68.707", "longitude": "07109.4050064W", "speed": "0.005"}, "timestamp": 1517624721.922206, "sensorID": "04"}
{"sensorSN": "null", "sensorType": "GPS6000", "data": {"valid": "1", "utc": "022522.80", "latitude": "3444.4821853S", "_RAW": "$GPVTG,71.727,T,71.727,M,0.002,N,0.004,K,A*25\r\n", "grades_from_north": "71.727", "longitude": "07109.4050071W", "speed": "0.004"}, "timestamp": 1517624722.955164, "sensorID": "04"}
{"sensorSN": "null", "sensorType": "GPS6000", "data": {"valid": "2", "utc": "022523.80", "latitude": "3444.4821855S", "_RAW": "$GPVTG,69.401,T,69.401,M,0.002,N,0.004,K,D*20\r\n", "grades_from_north": "69.401", "longitude": "07109.4050065W", "speed": "0.004"}, "timestamp": 1517624724.047635, "sensorID": "04"}
{"sensorSN": "null", "sensorType": "GPS6000", "data": {"valid": "2", "utc": "022525.00", "latitude": "3444.4821738S", "_RAW": "$GPVTG,74.330,T,74.330,M,0.003,N,0.005,K,D*20\r\n", "grades_from_north": "74.330", "longitude": "07109.4050137W", "speed": "0.005"}, "timestamp": 1517624725.131091, "sensorID": "04"}
{"sensorSN": "null", "sensorType": "GPS6000", "data": {"valid": "2", "utc": "022526.10", "latitude": "3444.4821742S", "_RAW": "$GPVTG,77.707,T,77.707,M,0.002,N,0.004,K,D*20\r\n", "grades_from_north": "77.707", "longitude": "07109.4050165W", "speed": "0.004"}, "timestamp": 1517624726.183311, "sensorID": "04"}
{"sensorSN": "null", "sensorType": "GPS6000", "data": {"valid": "2", "utc": "022527.10", "latitude": "3444.4821708S", "_RAW": "$GPVTG,83.045,T,83.045,M,0.002,N,0.005,K,D*21\r\n", "grades_from_north": "83.045", "longitude": "07109.4050264W", "speed": "0.005"}, "timestamp": 1517624727.274276, "sensorID": "04"}
{"sensorSN": "null", "sensorType": "GPS6000", "data": {"valid": "2", "utc": "022528.10", "latitude": "3444.4821718S", "_RAW": "$GPVTG,90.210,T,90.210,M,0.002,N,0.004,K,D*20\r\n", "grades_from_north": "90.210", "longitude": "07109.4050259W", "speed": "0.004"}, "timestamp": 1517624728.289864, "sensorID": "04"}
{"sensorSN": "null", "sensorType": "GPS6000", "data": {"valid": "2", "utc": "022529.20", "latitude": "3444.4821691S", "_RAW": "$GPGSV,5,1,17,51,35,308,40,44,27,299,,46,18,289,,48,14,287,*7D\r\n", "grades_from_north": "100.786", "longitude": "07109.4050354W", "speed": "0.004"}, "timestamp": 1517624729.330448, "sensorID": "04"}
{"sensorSN": "null", "sensorType": "GPS6000", "data": {"valid": "2", "utc": "022530.20", "latitude": "3444.4821691S", "_RAW": "$GPGSA,M,3,02,06,16,22,03,26,07,09,23,30,,,1.5,0.8,1.3*38\r\n", "grades_from_north": "88.486", "longitude": "07109.4050370W", "speed": "0.004"}, "timestamp": 1517624730.457042, "sensorID": "04"}
{"sensorSN": "null", "sensorType": "GPS6000", "data": {"valid": "2", "utc": "022531.20", "latitude": "3444.4821698S", "_RAW": "$GPGSV,5,5,17,17,04,308,*46\r\n", "grades_from_north": "94.258", "longitude": "07109.4050378W", "speed": "0.004"}, "timestamp": 1517624731.509382, "sensorID": "04"}
{"sensorSN": "null", "sensorType": "GPS6000", "data": {"valid": "2", "utc": "022532.20", "latitude": "3444.4821657S", "_RAW": "$GPGSV,5,5,17,17,04,308,*46\r\n", "grades_from_north": "83.254", "longitude": "07109.4050470W", "speed": "0.004"}, "timestamp": 1517624732.536968, "sensorID": "04"}
{"sensorSN": "null", "sensorType": "GPS6000", "data": {"valid": "2", "utc": "022533.20", "latitude": "3444.4821674S", "_RAW": "$GPGSA,M,3,02,06,16,22,03,26,07,09,23,30,,,1.5,0.8,1.3*38\r\n", "grades_from_north": "92.998", "longitude": "07109.4050461W", "speed": "0.004"}, "timestamp": 1517624733.556566, "sensorID": "04"}
{"sensorSN": "null", "sensorType": "GPS6000", "data": {"valid": "2", "utc": "022534.40", "latitude": "3444.4821652S", "_RAW": "$GPVTG,102.136,T,102.136,M,0.003,N,0.005,K,D*20\r\n", "grades_from_north": "102.136", "longitude": "07109.4050568W", "speed": "0.005"}, "timestamp": 1517624734.613524, "sensorID": "04"}
{"sensorSN": "null", "sensorType": "GPS6000", "data": {"valid": "2", "utc": "022535.60", "latitude": "3444.4821651S", "_RAW": "$GPGGA,022535.60,3444.4821651,S,07109.4050562,W,2,10,0.8,216.308,M,24.30,M,,*52\r\n", "grades_from_north": "91.294", "longitude": "07109.4050562W", "speed": "0.005"}, "timestamp": 1517624735.687113, "sensorID": "04"}
{"sensorSN": "null", "sensorType": "GPS6000", "data": {"valid": "2", "utc": "022536.40", "latitude": "3444.4821648S", "_RAW": "$GPVTG,96.508,T,96.508,M,0.003,N,0.005,K,D*20\r\n", "grades_from_north": "96.508", "longitude": "07109.4050565W", "speed": "0.005"}, "timestamp": 1517624736.723697, "sensorID": "04"}
{"sensorSN": "null", "sensorType": "GPS6000", "data": {"valid": "2", "utc": "022537.60", "latitude": "3444.4821618S", "_RAW": "$GPVTG,96.814,T,96.814,M,0.003,N,0.005,K,D*20\r\n", "grades_from_north": "96.814", "longitude": "07109.4050666W", "speed": "0.005"}, "timestamp": 1517624737.748297, "sensorID": "04"}
{"sensorSN": "null", "sensorType": "GPS6000", "data": {"valid": "2", "utc": "022538.70", "latitude": "3444.4821627S", "_RAW": "$GPVTG,101.071,T,101.071,M,0.003,N,0.005,K,D*20\r\n", "grades_from_north": "101.071", "longitude": "07109.4050673W", "speed": "0.005"}, "timestamp": 1517624738.813136, "sensorID": "04"}
{"sensorSN": "null", "sensorType": "GPS6000", "data": {"valid": "2", "utc": "022539.80", "latitude": "3444.4821601S", "_RAW": "$GPVTG,107.134,T,107.134,M,0.002,N,0.004,K,D*20\r\n", "grades_from_north": "107.134", "longitude": "07109.4050773W", "speed": "0.004"}, "timestamp": 1517624739.942965, "sensorID": "04"}
{"sensorSN": "null", "sensorType": "GPS6000", "data": {"valid": "2", "utc": "022540.90", "latitude": "3444.4821592S", "_RAW": "$GPGGA,022540.90,3444.4821592,S,07109.4050773,W,2,11,2.0,216.301,M,24.30,M,,*53\r\n", "grades_from_north": "98.976", "longitude": "07109.4050773W", "speed": "0.004"}, "timestamp": 1517624741.01118, "sensorID": "04"}
{"sensorSN": "null", "sensorType": "GPS6000", "data": {"valid": "2", "utc": "022541.90", "latitude": "3444.4821563S", "_RAW": "$GPVTG,99.621,T,99.621,M,0.002,N,0.004,K,D*20\r\n", "grades_from_north": "99.621", "longitude": "07109.4050861W", "speed": "0.004"}, "timestamp": 1517624742.073394, "sensorID": "04"}
{"sensorSN": "null", "sensorType": "GPS6000", "data": {"valid": "2", "utc": "022542.90", "latitude": "3444.4821581S", "_RAW": "$GPVTG,116.162,T,116.162,M,0.002,N,0.003,K,D*27\r\n", "grades_from_north": "116.162", "longitude": "07109.4050865W", "speed": "0.003"}, "timestamp": 1517624743.097736, "sensorID": "04"}
{"sensorSN": "null", "sensorType": "GPS6000", "data": {"valid": "2", "utc": "022544.00", "latitude": "3444.4821561S", "_RAW": "$GPVTG,97.617,T,97.617,M,0.002,N,0.004,K,D*20\r\n", "grades_from_north": "97.617", "longitude": "07109.4050859W", "speed": "0.004"}, "timestamp": 1517624744.122085, "sensorID": "04"}
{"sensorSN": "null", "sensorType": "GPS6000", "data": {"valid": "2", "utc": "022545.00", "latitude": "3444.4821545S", "_RAW": "$GPVTG,108.651,T,108.651,M,0.001,N,0.002,K,D*25\r\n", "grades_from_north": "108.651", "longitude": "07109.4050984W", "speed": "0.002"}, "timestamp": 1517624745.14905, "sensorID": "04"}
{"sensorSN": "null", "sensorType": "GPS6000", "data": {"valid": "2", "utc": "022546.10", "latitude": "3444.4821545S", "_RAW": "$GPGGA,022546.10,3444.4821545,S,07109.4050980,W,2,11,2.0,216.298,M,24.30,M,,*54\r\n", "grades_from_north": "96.636", "longitude": "07109.4050980W", "speed": "0.003"}, "timestamp": 1517624746.22076, "sensorID": "04"}
{"sensorSN": "null", "sensorType": "GPS6000", "data": {"valid": "2", "utc": "022547.10", "latitude": "3444.4821530S", "_RAW": "$GPVTG,117.450,T,117.450,M,0.002,N,0.003,K,D*27\r\n", "grades_from_north": "117.450", "longitude": "07109.4051070W", "speed": "0.003"}, "timestamp": 1517624747.279357, "sensorID": "04"}
{"sensorSN": "null", "sensorType": "GPS6000", "data": {"valid": "2", "utc": "022548.20", "latitude": "3444.4821540S", "_RAW": "$GPGGA,022548.20,3444.4821540,S,07109.4051063,W,2,10,0.8,216.297,M,24.30,M,,*5D\r\n", "grades_from_north": "128.046", "longitude": "07109.4051063W", "speed": "0.004"}, "timestamp": 1517624748.303821, "sensorID": "04"}
{"sensorSN": "null", "sensorType": "GPS6000", "data": {"valid": "2", "utc": "022549.20", "latitude": "3444.4821506S", "_RAW": "$GPVTG,109.424,T,109.424,M,0.002,N,0.003,K,D*27\r\n", "grades_from_north": "109.424", "longitude": "07109.4051170W", "speed": "0.003"}, "timestamp": 1517624749.332041, "sensorID": "04"}
{"sensorSN": "null", "sensorType": "GPS6000", "data": {"valid": "2", "utc": "022550.20", "latitude": "3444.4821503S", "_RAW": "$GPVTG,113.732,T,113.732,M,0.001,N,0.002,K,D*25\r\n", "grades_from_north": "113.732", "longitude": "07109.4051169W", "speed": "0.002"}, "timestamp": 1517624750.353879, "sensorID": "04"}
{"sensorSN": "null", "sensorType": "GPS6000", "data": {"valid": "2", "utc": "022551.20", "latitude": "3444.4821512S", "_RAW": "$GPGSV,5,2,17,09,65,226,49,23,53,142,49,06,45,245,48,07,43,348,46*71\r\n", "grades_from_north": "114.749", "longitude": "07109.4051176W", "speed": "0.002"}, "timestamp": 1517624751.391718, "sensorID": "04"}
{"sensorSN": "null", "sensorType": "GPS6000", "data": {"valid": "2", "utc": "022552.20", "latitude": "3444.4821471S", "_RAW": "$GPGSV,5,4,17,16,12,101,39,19,09,287,,01,08,016,,26,07,129,35*7D\r\n", "grades_from_north": "95.110", "longitude": "07109.4051259W", "speed": "0.003"}, "timestamp": 1517624752.443805, "sensorID": "04"}
{"sensorSN": "null", "sensorType": "GPS6000", "data": {"valid": "2", "utc": "022553.20", "latitude": "3444.4821493S", "_RAW": "$GPGSV,5,5,17,17,04,308,*46\r\n", "grades_from_north": "106.659", "longitude": "07109.4051268W", "speed": "0.002"}, "timestamp": 1517624753.491029, "sensorID": "04"}
{"sensorSN": "null", "sensorType": "GPS6000", "data": {"valid": "2", "utc": "022554.20", "latitude": "3444.4821455S", "_RAW": "$GPGSV,5,5,17,17,04,308,*46\r\n", "grades_from_north": "80.351", "longitude": "07109.4051374W", "speed": "0.002"}, "timestamp": 1517624754.509862, "sensorID": "04"}
{"sensorSN": "null", "sensorType": "GPS6000", "data": {"valid": "2", "utc": "022555.40", "latitude": "3444.4821475S", "_RAW": "$GPGGA,022555.40,3444.4821475,S,07109.4051370,W,2,10,0.8,216.285,M,24.30,M,,*52\r\n", "grades_from_north": "114.122", "longitude": "07109.4051370W", "speed": "0.003"}, "timestamp": 1517624755.563589, "sensorID": "04"}
{"sensorSN": "null", "sensorType": "GPS6000", "data": {"valid": "2", "utc": "022556.30", "latitude": "3444.4821456S", "_RAW": "$GPGGA,022556.30,3444.4821456,S,07109.4051380,W,2,10,0.8,216.291,M,24.30,M,,*5D\r\n", "grades_from_north": "93.173", "longitude": "07109.4051380W", "speed": "0.002"}, "timestamp": 1517624756.59163, "sensorID": "04"}
{"sensorSN": "null", "sensorType": "GPS6000", "data": {"valid": "2", "utc": "022557.30", "latitude": "3444.4821433S", "_RAW": "$GPGGA,022557.30,3444.4821433,S,07109.4051450,W,2,10,0.8,216.292,M,24.30,M,,*56\r\n", "grades_from_north": "101.664", "longitude": "07109.4051450W", "speed": "0.003"}, "timestamp": 1517624757.619848, "sensorID": "04"}
{"sensorSN": "null", "sensorType": "GPS6000", "data": {"valid": "2", "utc": "022558.40", "latitude": "3444.4821468S", "_RAW": "$GPVTG,123.660,T,123.660,M,0.001,N,0.002,K,D*25\r\n", "grades_from_north": "123.660", "longitude": "07109.4051467W", "speed": "0.002"}, "timestamp": 1517624758.649649, "sensorID": "04"}
{"sensorSN": "null", "sensorType": "GPS6000", "data": {"valid": "2", "utc": "022559.40", "latitude": "3444.4821422S", "_RAW": "$GPVTG,84.965,T,84.965,M,0.001,N,0.002,K,D*25\r\n", "grades_from_north": "84.965", "longitude": "07109.4051557W", "speed": "0.002"}, "timestamp": 1517624759.682383, "sensorID": "04"}
{"sensorSN": "null", "sensorType": "GPS6000", "data": {"valid": "2", "utc": "022600.50", "latitude": "3444.4821430S", "_RAW": "$GPVTG,111.437,T,111.437,M,0.001,N,0.002,K,D*25\r\n", "grades_from_north": "111.437", "longitude": "07109.4051562W", "speed": "0.002"}, "timestamp": 1517624760.713732, "sensorID": "04"}
{"sensorSN": "null", "sensorType": "GPS6000", "data": {"valid": "2", "utc": "022601.50", "latitude": "3444.4821433S", "_RAW": "$GPVTG,97.324,T,97.324,M,0.002,N,0.003,K,D*27\r\n", "grades_from_north": "97.324", "longitude": "07109.4051553W", "speed": "0.003"}, "timestamp": 1517624761.746966, "sensorID": "04"}
{"sensorSN": "null", "sensorType": "GPS6000", "data": {"valid": "2", "utc": "022603.20", "latitude": "3444.4821442S", "_RAW": "$GPGGA,022603.20,3444.4821442,S,07109.4051640,W,2,10,0.8,216.277,M,24.30,M,,*5B\r\n", "grades_from_north": "97.394", "longitude": "07109.4051640W", "speed": "0.004"}, "timestamp": 1517624763.268091, "sensorID": "04"}
{"sensorSN": "null", "sensorType": "GPS6000", "data": {"valid": "2", "utc": "022604.30", "latitude": "3444.4821413S", "_RAW": "$GPVTG,99.438,T,99.438,M,0.001,N,0.002,K,D*25\r\n", "grades_from_north": "99.438", "longitude": "07109.4051752W", "speed": "0.002"}, "timestamp": 1517624764.46421, "sensorID": "04"}
{"sensorSN": "null", "sensorType": "GPS6000", "data": {"valid": "2", "utc": "022605.70", "latitude": "3444.4821401S", "_RAW": "$GPVTG,69.386,T,69.386,M,0.001,N,0.002,K,D*25\r\n", "grades_from_north": "69.386", "longitude": "07109.4051758W", "speed": "0.002"}, "timestamp": 1517624765.569275, "sensorID": "04"}
{"sensorSN": "null", "sensorType": "GPS6000", "data": {"valid": "2", "utc": "022607.00", "latitude": "3444.4821397S", "_RAW": "$GPVTG,54.843,T,54.843,M,0.001,N,0.003,K,D*24\r\n", "grades_from_north": "54.843", "longitude": "07109.4051834W", "speed": "0.003"}, "timestamp": 1517624766.879346, "sensorID": "04"}
{"sensorSN": "null", "sensorType": "GPS6000", "data": {"valid": "2", "utc": "022608.20", "latitude": "3444.4821381S", "_RAW": "$GPGSV,5,1,17,51,35,308,40,44,27,299,,46,18,289,,48,14,287,*7D\r\n", "grades_from_north": "33.680", "longitude": "07109.4051833W", "speed": "0.003"}, "timestamp": 1517624768.208022, "sensorID": "04"}
{"sensorSN": "null", "sensorType": "GPS6000", "data": {"valid": "2", "utc": "022609.70", "latitude": "3444.4821391S", "_RAW": "$GPGGA,022609.70,3444.4821391,S,07109.4051919,W,2,10,0.8,216.269,M,24.30,M,,*51\r\n", "grades_from_north": "63.829", "longitude": "07109.4051919W", "speed": "0.002"}, "timestamp": 1517624769.549117, "sensorID": "04"}
{"sensorSN": "null", "sensorType": "GPS6000", "data": {"valid": "2", "utc": "022611.10", "latitude": "3444.4821401S", "_RAW": "$GPVTG,101.234,T,101.234,M,0.001,N,0.001,K,D*26\r\n", "grades_from_north": "101.234", "longitude": "07109.4051908W", "speed": "0.001"}, "timestamp": 1517624771.28855, "sensorID": "04"}
{"sensorSN": "null", "sensorType": "GPS6000", "data": {"valid": "2", "utc": "022612.20", "latitude": "3444.4821396S", "_RAW": "$GPGGA,022612.20,3444.4821396,S,07109.4052010,W,2,10,0.8,216.263,M,24.30,M,,*50\r\n", "grades_from_north": "22.567", "longitude": "07109.4052010W", "speed": "0.001"}, "timestamp": 1517624772.324609, "sensorID": "04"}
{"sensorSN": "null", "sensorType": "GPS6000", "data": {"valid": "2", "utc": "022613.20", "latitude": "3444.4821398S", "_RAW": "$GPVTG,118.132,T,118.132,M,0.000,N,0.001,K,D*27\r\n", "grades_from_north": "118.132", "longitude": "07109.4052009W", "speed": "0.001"}, "timestamp": 1517624773.353048, "sensorID": "04"}
{"sensorSN": "null", "sensorType": "GPS6000", "data": {"valid": "2", "utc": "022614.20", "latitude": "3444.4821396S", "_RAW": "$GPGSV,5,1,17,51,35,308,40,44,27,299,,46,18,289,,48,14,287,*7D\r\n", "grades_from_north": "352.574", "longitude": "07109.4052096W", "speed": "0.002"}, "timestamp": 1517624774.388239, "sensorID": "04"}
{"sensorSN": "null", "sensorType": "GPS6000", "data": {"valid": "2", "utc": "022615.20", "latitude": "3444.4821370S", "_RAW": "$GPGSV,5,3,17,03,40,075,46,22,20,064,42,30,19,338,35,02,15,223,40*7C\r\n", "grades_from_north": "2.066", "longitude": "07109.4052099W", "speed": "0.003"}, "timestamp": 1517624775.4263, "sensorID": "04"}
{"sensorSN": "null", "sensorType": "GPS6000", "data": {"valid": "2", "utc": "022616.90", "latitude": "3444.4821393S", "_RAW": "$GPVTG,29.907,T,29.907,M,0.001,N,0.002,K,D*25\r\n", "grades_from_north": "29.907", "longitude": "07109.4052162W", "speed": "0.002"}, "timestamp": 1517624776.454597, "sensorID": "04"}
{"sensorSN": "null", "sensorType": "GPS6000", "data": {"valid": "2", "utc": "022618.20", "latitude": "3444.4821399S", "_RAW": "$GPVTG,1.361,T,1.361,M,0.001,N,0.002,K,D*25\r\n", "grades_from_north": "1.361", "longitude": "07109.4052172W", "speed": "0.002"}, "timestamp": 1517624778.337674, "sensorID": "04"}
{"sensorSN": "null", "sensorType": "GPS6000", "data": {"valid": "2", "utc": "022619.20", "latitude": "3444.4821398S", "_RAW": "$GPGSV,5,1,17,51,35,308,40,44,27,299,,46,18,289,,48,14,287,*7D\r\n", "grades_from_north": "358.818", "longitude": "07109.4052265W", "speed": "0.003"}, "timestamp": 1517624779.360878, "sensorID": "04"}
{"sensorSN": "null", "sensorType": "GPS6000", "data": {"valid": "2", "utc": "022621.00", "latitude": "3444.4821389S", "_RAW": "$GPVTG,352.750,T,352.750,M,0.002,N,0.004,K,D*20\r\n", "grades_from_north": "352.750", "longitude": "07109.4052265W", "speed": "0.004"}, "timestamp": 1517624780.563665, "sensorID": "04"}
{"sensorSN": "null", "sensorType": "GPS6000", "data": {"valid": "2", "utc": "022622.10", "latitude": "3444.4821410S", "_RAW": "$GPGGA,022622.10,3444.4821410,S,07109.4052335,W,2,10,0.8,216.244,M,24.30,M,,*58\r\n", "grades_from_north": "2.630", "longitude": "07109.4052335W", "speed": "0.004"}, "timestamp": 1517624782.231159, "sensorID": "04"}
{"sensorSN": "null", "sensorType": "GPS6000", "data": {"valid": "2", "utc": "022623.10", "latitude": "3444.4821416S", "_RAW": "$GPVTG,5.331,T,5.331,M,0.002,N,0.003,K,D*27\r\n", "grades_from_north": "5.331", "longitude": "07109.4052321W", "speed": "0.003"}, "timestamp": 1517624783.254552, "sensorID": "04"}
{"sensorSN": "null", "sensorType": "GPS6000", "data": {"valid": "2", "utc": "022624.10", "latitude": "3444.4821421S", "_RAW": "$GPVTG,9.714,T,9.714,M,0.002,N,0.004,K,D*20\r\n", "grades_from_north": "9.714", "longitude": "07109.4052408W", "speed": "0.004"}, "timestamp": 1517624784.282881, "sensorID": "04"}
{"sensorSN": "null", "sensorType": "GPS6000", "data": {"valid": "2", "utc": "022625.10", "latitude": "3444.4821409S", "_RAW": "$GPVTG,3.840,T,3.840,M,0.002,N,0.003,K,D*27\r\n", "grades_from_north": "3.840", "longitude": "07109.4052418W", "speed": "0.003"}, "timestamp": 1517624785.311934, "sensorID": "04"}
{"sensorSN": "null", "sensorType": "GPS6000", "data": {"valid": "2", "utc": "022626.20", "latitude": "3444.4821437S", "_RAW": "$GPVTG,11.419,T,11.419,M,0.001,N,0.002,K,D*25\r\n", "grades_from_north": "11.419", "longitude": "07109.4052397W", "speed": "0.002"}, "timestamp": 1517624786.344269, "sensorID": "04"}
{"sensorSN": "null", "sensorType": "GPS6000", "data": {"valid": "2", "utc": "022627.20", "latitude": "3444.4821441S", "_RAW": "$GPGSV,5,2,17,09,65,225,48,23,53,141,49,06,45,246,48,07,43,348,45*70\r\n", "grades_from_north": "12.518", "longitude": "07109.4052492W", "speed": "0.003"}, "timestamp": 1517624787.370886, "sensorID": "04"}
{"sensorSN": "null", "sensorType": "GPS6000", "data": {"valid": "2", "utc": "022628.20", "latitude": "3444.4821435S", "_RAW": "$GPGSV,5,1,17,51,35,308,40,44,27,299,,46,18,289,,48,14,287,*7D\r\n", "grades_from_north": "12.690", "longitude": "07109.4052495W", "speed": "0.003"}, "timestamp": 1517624788.399309, "sensorID": "04"}
{"sensorSN": "null", "sensorType": "GPS6000", "data": {"valid": "2", "utc": "022629.20", "latitude": "3444.4821451S", "_RAW": "$GPGSV,5,2,17,09,65,225,48,23,53,141,49,06,45,246,48,07,43,348,45*70\r\n", "grades_from_north": "6.501", "longitude": "07109.4052568W", "speed": "0.003"}, "timestamp": 1517624789.434679, "sensorID": "04"}
{"sensorSN": "null", "sensorType": "GPS6000", "data": {"valid": "2", "utc": "022630.20", "latitude": "3444.4821441S", "_RAW": "$GPGSV,5,3,17,03,40,075,46,22,20,064,41,30,19,338,37,02,15,223,40*7D\r\n", "grades_from_north": "3.927", "longitude": "07109.4052562W", "speed": "0.004"}, "timestamp": 1517624790.471544, "sensorID": "04"}
{"sensorSN": "null", "sensorType": "GPS6000", "data": {"valid": "2", "utc": "022631.20", "latitude": "3444.4821461S", "_RAW": "$GPGSV,5,4,17,16,13,101,38,19,09,287,,01,08,016,,26,07,129,31*79\r\n", "grades_from_north": "5.529", "longitude": "07109.4052567W", "speed": "0.003"}, "timestamp": 1517624791.507504, "sensorID": "04"}
{"sensorSN": "null", "sensorType": "GPS6000", "data": {"valid": "2", "utc": "022632.30", "latitude": "3444.4821484S", "_RAW": "$GPVTG,29.707,T,29.707,M,0.001,N,0.002,K,D*25\r\n", "grades_from_north": "29.707", "longitude": "07109.4052639W", "speed": "0.002"}, "timestamp": 1517624792.54397, "sensorID": "04"}
{"sensorSN": "null", "sensorType": "GPS6000", "data": {"valid": "2", "utc": "022633.30", "latitude": "3444.4821457S", "_RAW": "$GPGGA,022633.30,3444.4821457,S,07109.4052644,W,2,10,0.8,216.225,M,24.30,M,,*5D\r\n", "grades_from_north": "18.245", "longitude": "07109.4052644W", "speed": "0.002"}, "timestamp": 1517624793.576541, "sensorID": "04"}
{"sensorSN": "null", "sensorType": "GPS6000", "data": {"valid": "2", "utc": "022634.30", "latitude": "3444.4821475S", "_RAW": "$GPGGA,022634.30,3444.4821475,S,07109.4052699,W,2,10,0.8,216.216,M,24.30,M,,*5A\r\n", "grades_from_north": "16.345", "longitude": "07109.4052699W", "speed": "0.003"}, "timestamp": 1517624794.610175, "sensorID": "04"}
{"sensorSN": "null", "sensorType": "GPS6000", "data": {"valid": "2", "utc": "022635.40", "latitude": "3444.4821469S", "_RAW": "$GPVTG,357.220,T,357.220,M,0.002,N,0.004,K,D*20\r\n", "grades_from_north": "357.220", "longitude": "07109.4052714W", "speed": "0.004"}, "timestamp": 1517624795.647254, "sensorID": "04"}
{"sensorSN": "null", "sensorType": "GPS6000", "data": {"valid": "2", "utc": "022636.50", "latitude": "3444.4821487S", "_RAW": "$GPVTG,6.730,T,6.730,M,0.002,N,0.003,K,D*27\r\n", "grades_from_north": "6.730", "longitude": "07109.4052698W", "speed": "0.003"}, "timestamp": 1517624796.685461, "sensorID": "04"}
{"sensorSN": "null", "sensorType": "GPS6000", "data": {"valid": "2", "utc": "022637.50", "latitude": "3444.4821482S", "_RAW": "$GPVTG,1.037,T,1.037,M,0.002,N,0.003,K,D*27\r\n", "grades_from_north": "1.037", "longitude": "07109.4052774W", "speed": "0.003"}, "timestamp": 1517624797.712536, "sensorID": "04"}
{"sensorSN": "null", "sensorType": "GPS6000", "data": {"valid": "2", "utc": "022638.60", "latitude": "3444.4821522S", "_RAW": "$GPVTG,348.757,T,348.757,M,0.001,N,0.002,K,D*25\r\n", "grades_from_north": "348.757", "longitude": "07109.4052778W", "speed": "0.002"}, "timestamp": 1517624798.744009, "sensorID": "04"}
{"sensorSN": "null", "sensorType": "GPS6000", "data": {"valid": "2", "utc": "022639.60", "latitude": "3444.4821527S", "_RAW": "$GPVTG,2.923,T,2.923,M,0.002,N,0.003,K,D*27\r\n", "grades_from_north": "2.923", "longitude": "07109.4052840W", "speed": "0.003"}, "timestamp": 1517624799.775753, "sensorID": "04"}
{"sensorSN": "null", "sensorType": "GPS6000", "data": {"valid": "2", "utc": "022640.60", "latitude": "3444.4821523S", "_RAW": "$GPVTG,0.064,T,0.064,M,0.002,N,0.003,K,D*27\r\n", "grades_from_north": "0.064", "longitude": "07109.4052850W", "speed": "0.003"}, "timestamp": 1517624800.807809, "sensorID": "04"}
{"sensorSN": "null", "sensorType": "GPS6000", "data": {"valid": "2", "utc": "022641.70", "latitude": "3444.4821536S", "_RAW": "$GPVTG,353.283,T,353.283,M,0.002,N,0.003,K,D*27\r\n", "grades_from_north": "353.283", "longitude": "07109.4052923W", "speed": "0.003"}, "timestamp": 1517624801.843179, "sensorID": "04"}
{"sensorSN": "null", "sensorType": "GPS6000", "data": {"valid": "2", "utc": "022642.70", "latitude": "3444.4821549S", "_RAW": "$GPGGA,022642.70,3444.4821549,S,07109.4052917,W,2,10,0.8,216.199,M,24.30,M,,*5C\r\n", "grades_from_north": "357.380", "longitude": "07109.4052917W", "speed": "0.002"}, "timestamp": 1517624802.880282, "sensorID": "04"}
{"sensorSN": "null", "sensorType": "GPS6000", "data": {"valid": "2", "utc": "022643.80", "latitude": "3444.4821541S", "_RAW": "$GPGGA,022643.80,3444.4821541,S,07109.4052918,W,2,10,0.8,216.193,M,24.30,M,,*5F\r\n", "grades_from_north": "6.839", "longitude": "07109.4052918W", "speed": "0.002"}, "timestamp": 1517624803.909733, "sensorID": "04"}
{"sensorSN": "null", "sensorType": "GPS6000", "data": {"valid": "2", "utc": "022644.80", "latitude": "3444.4821564S", "_RAW": "$GPVTG,359.181,T,359.181,M,0.001,N,0.002,K,D*25\r\n", "grades_from_north": "359.181", "longitude": "07109.4052975W", "speed": "0.002"}, "timestamp": 1517624804.938175, "sensorID": "04"}
{"sensorSN": "null", "sensorType": "GPS6000", "data": {"valid": "2", "utc": "022645.90", "latitude": "3444.4821572S", "_RAW": "$GPGGA,022645.90,3444.4821572,S,07109.4052944,W,2,10,0.8,216.184,M,24.30,M,,*57\r\n", "grades_from_north": "343.986", "longitude": "07109.4052944W", "speed": "0.001"}, "timestamp": 1517624805.979619, "sensorID": "04"}
{"sensorSN": "null", "sensorType": "GPS6000", "data": {"valid": "2", "utc": "022646.90", "latitude": "3444.4821605S", "_RAW": "$GPGGA,022646.90,3444.4821605,S,07109.4053030,W,2,10,0.8,216.184,M,24.30,M,,*5C\r\n", "grades_from_north": "19.366", "longitude": "07109.4053030W", "speed": "0.001"}, "timestamp": 1517624807.008708, "sensorID": "04"}
{"sensorSN": "null", "sensorType": "GPS6000", "data": {"valid": "2", "utc": "022647.90", "latitude": "3444.4821605S", "_RAW": "$GPGGA,022647.90,3444.4821605,S,07109.4053021,W,2,10,0.8,216.179,M,24.30,M,,*5F\r\n", "grades_from_north": "43.827", "longitude": "07109.4053021W", "speed": "0.001"}, "timestamp": 1517624808.018929, "sensorID": "04"}
{"sensorSN": "null", "sensorType": "GPS6000", "data": {"valid": "2", "utc": "022648.90", "latitude": "3444.4821727S", "_RAW": "$GPGGA,022648.90,3444.4821727,S,07109.4053261,W,2,10,0.8,216.183,M,24.30,M,,*52\r\n", "grades_from_north": "162.824", "longitude": "07109.4053261W", "speed": "0.010"}, "timestamp": 1517624809.024853, "sensorID": "04"}
{"sensorSN": "null", "sensorType": "GPS6000", "data": {"valid": "2", "utc": "022649.90", "latitude": "3444.4821844S", "_RAW": "$GPVTG,112.045,T,112.045,M,0.004,N,0.008,K,D*2A\r\n", "grades_from_north": "112.045", "longitude": "07109.4053542W", "speed": "0.008"}, "timestamp": 1517624810.048089, "sensorID": "04"}
{"sensorSN": "null", "sensorType": "GPS6000", "data": {"valid": "2", "utc": "022650.90", "latitude": "3444.4821836S", "_RAW": "$GPVTG,108.612,T,108.612,M,0.004,N,0.008,K,D*2A\r\n", "grades_from_north": "108.612", "longitude": "07109.4053546W", "speed": "0.008"}, "timestamp": 1517624811.08863, "sensorID": "04"}
{"sensorSN": "null", "sensorType": "GPS6000", "data": {"valid": "2", "utc": "022652.00", "latitude": "3444.4821882S", "_RAW": "$GPGGA,022652.00,3444.4821882,S,07109.4053617,W,2,10,0.8,216.136,M,24.30,M,,*5B\r\n", "grades_from_north": "111.352", "longitude": "07109.4053617W", "speed": "0.008"}, "timestamp": 1517624812.12134, "sensorID": "04"}
{"sensorSN": "null", "sensorType": "GPS6000", "data": {"valid": "2", "utc": "022653.00", "latitude": "3444.4821867S", "_RAW": "$GPVTG,110.003,T,110.003,M,0.004,N,0.008,K,D*2A\r\n", "grades_from_north": "110.003", "longitude": "07109.4053611W", "speed": "0.008"}, "timestamp": 1517624813.144642, "sensorID": "04"}
{"sensorSN": "null", "sensorType": "GPS6000", "data": {"valid": "2", "utc": "022654.00", "latitude": "3444.4821879S", "_RAW": "$GPVTG,111.295,T,111.295,M,0.004,N,0.007,K,D*25\r\n", "grades_from_north": "111.295", "longitude": "07109.4053606W", "speed": "0.007"}, "timestamp": 1517624814.174027, "sensorID": "04"}
{"sensorSN": "null", "sensorType": "GPS6000", "data": {"valid": "2", "utc": "022655.10", "latitude": "3444.4821930S", "_RAW": "$GPGGA,022655.10,3444.4821930,S,07109.4053679,W,2,10,0.8,216.135,M,24.30,M,,*5E\r\n", "grades_from_north": "113.436", "longitude": "07109.4053679W", "speed": "0.007"}, "timestamp": 1517624815.209658, "sensorID": "04"}
{"sensorSN": "null", "sensorType": "GPS6000", "data": {"valid": "2", "utc": "022656.10", "latitude": "3444.4821914S", "_RAW": "$GPVTG,115.389,T,115.389,M,0.004,N,0.007,K,D*25\r\n", "grades_from_north": "115.389", "longitude": "07109.4053684W", "speed": "0.007"}, "timestamp": 1517624816.243126, "sensorID": "04"}
{"sensorSN": "null", "sensorType": "GPS6000", "data": {"valid": "2", "utc": "022657.10", "latitude": "3444.4821958S", "_RAW": "$GPVTG,119.702,T,119.702,M,0.004,N,0.007,K,D*25\r\n", "grades_from_north": "119.702", "longitude": "07109.4053736W", "speed": "0.007"}, "timestamp": 1517624817.271447, "sensorID": "04"}
{"sensorSN": "null", "sensorType": "GPS6000", "data": {"valid": "2", "utc": "022658.10", "latitude": "3444.4821946S", "_RAW": "$GPVTG,112.837,T,112.837,M,0.004,N,0.007,K,D*25\r\n", "grades_from_north": "112.837", "longitude": "07109.4053753W", "speed": "0.007"}, "timestamp": 1517624818.30422, "sensorID": "04"}
{"sensorSN": "null", "sensorType": "GPS6000", "data": {"valid": "2", "utc": "022659.20", "latitude": "3444.4821978S", "_RAW": "$GPGGA,022659.20,3444.4821978,S,07109.4053806,W,2,10,0.8,216.125,M,24.30,M,,*5A\r\n", "grades_from_north": "112.717", "longitude": "07109.4053806W", "speed": "0.005"}, "timestamp": 1517624819.335776, "sensorID": "04"}
{"sensorSN": "null", "sensorType": "GPS6000", "data": {"valid": "2", "utc": "022700.20", "latitude": "3444.4821981S", "_RAW": "$GPGSV,5,1,17,51,35,308,40,44,27,299,,46,18,289,,48,14,287,*7D\r\n", "grades_from_north": "108.724", "longitude": "07109.4053808W", "speed": "0.006"}, "timestamp": 1517624820.36422, "sensorID": "04"}
{"sensorSN": "null", "sensorType": "GPS6000", "data": {"valid": "2", "utc": "022701.20", "latitude": "3444.4821983S", "_RAW": "$GPGSV,5,2,17,09,65,225,48,23,53,141,49,06,45,246,48,07,43,348,46*73\r\n", "grades_from_north": "99.226", "longitude": "07109.4053809W", "speed": "0.005"}, "timestamp": 1517624821.387381, "sensorID": "04"}
{"sensorSN": "null", "sensorType": "GPS6000", "data": {"valid": "2", "utc": "022702.20", "latitude": "3444.4822025S", "_RAW": "$GPGSV,5,3,17,03,40,074,45,22,20,064,41,30,20,338,39,02,16,223,40*78\r\n", "grades_from_north": "112.557", "longitude": "07109.4053873W", "speed": "0.005"}, "timestamp": 1517624822.412939, "sensorID": "04"}
{"sensorSN": "null", "sensorType": "GPS6000", "data": {"valid": "2", "utc": "022703.20", "latitude": "3444.4822025S", "_RAW": "$GPGSV,5,4,17,16,13,102,38,19,09,287,,01,08,016,,26,07,129,31*7A\r\n", "grades_from_north": "103.853", "longitude": "07109.4053869W", "speed": "0.004"}, "timestamp": 1517624823.437061, "sensorID": "04"}
{"sensorSN": "null", "sensorType": "GPS6000", "data": {"valid": "2", "utc": "022704.20", "latitude": "3444.4822059S", "_RAW": "$GPGSV,5,3,17,03,40,074,45,22,20,064,41,30,20,338,38,02,16,223,40*79\r\n", "grades_from_north": "104.707", "longitude": "07109.4053920W", "speed": "0.004"}, "timestamp": 1517624824.460278, "sensorID": "04"}
{"sensorSN": "null", "sensorType": "GPS6000", "data": {"valid": "2", "utc": "022705.20", "latitude": "3444.4822058S", "_RAW": "$GPGSV,5,5,17,17,04,309,*47\r\n", "grades_from_north": "100.218", "longitude": "07109.4053934W", "speed": "0.004"}, "timestamp": 1517624825.490695, "sensorID": "04"}
{"sensorSN": "null", "sensorType": "GPS6000", "data": {"valid": "2", "utc": "022706.20", "latitude": "3444.4822063S", "_RAW": "$GPGSA,M,3,02,06,16,22,03,26,07,09,23,30,,,1.5,0.8,1.3*38\r\n", "grades_from_north": "88.132", "longitude": "07109.4053905W", "speed": "0.004"}, "timestamp": 1517624826.524009, "sensorID": "04"}
{"sensorSN": "null", "sensorType": "GPS6000", "data": {"valid": "2", "utc": "022707.30", "latitude": "3444.4822105S", "_RAW": "$GPVTG,93.789,T,93.789,M,0.002,N,0.003,K,D*27\r\n", "grades_from_north": "93.789", "longitude": "07109.4053979W", "speed": "0.003"}, "timestamp": 1517624827.551701, "sensorID": "04"}
{"sensorSN": "null", "sensorType": "GPS6000", "data": {"valid": "2", "utc": "022708.40", "latitude": "3444.4822089S", "_RAW": "$GPGGA,022708.40,3444.4822089,S,07109.4053980,W,2,10,0.8,216.095,M,24.30,M,,*58\r\n", "grades_from_north": "74.873", "longitude": "07109.4053980W", "speed": "0.003"}, "timestamp": 1517624828.579852, "sensorID": "04"}
{"sensorSN": "null", "sensorType": "GPS6000", "data": {"valid": "2", "utc": "022709.30", "latitude": "3444.4822137S", "_RAW": "$GPVTG,75.785,T,75.785,M,0.002,N,0.004,K,D*20\r\n", "grades_from_north": "75.785", "longitude": "07109.4054021W", "speed": "0.004"}, "timestamp": 1517624829.605709, "sensorID": "04"}
{"sensorSN": "null", "sensorType": "GPS6000", "data": {"valid": "2", "utc": "022710.50", "latitude": "3444.4822140S", "_RAW": "$GPGGA,022710.50,3444.4822140,S,07109.4054043,W,2,10,0.8,216.088,M,24.30,M,,*59\r\n", "grades_from_north": "50.462", "longitude": "07109.4054043W", "speed": "0.004"}, "timestamp": 1517624830.639621, "sensorID": "04"}
{"sensorSN": "null", "sensorType": "GPS6000", "data": {"valid": "2", "utc": "022711.50", "latitude": "3444.4822125S", "_RAW": "$GPGGA,022711.50,3444.4822125,S,07109.4054028,W,2,10,0.8,216.086,M,24.30,M,,*58\r\n", "grades_from_north": "51.958", "longitude": "07109.4054028W", "speed": "0.004"}, "timestamp": 1517624831.67705, "sensorID": "04"}
{"sensorSN": "null", "sensorType": "GPS6000", "data": {"valid": "2", "utc": "022712.50", "latitude": "3444.4822177S", "_RAW": "$GPGGA,022712.50,3444.4822177,S,07109.4054084,W,2,10,0.8,216.090,M,24.30,M,,*5D\r\n", "grades_from_north": "68.846", "longitude": "07109.4054084W", "speed": "0.004"}, "timestamp": 1517624832.705266, "sensorID": "04"}
{"sensorSN": "null", "sensorType": "GPS6000", "data": {"valid": "2", "utc": "022713.60", "latitude": "3444.4822160S", "_RAW": "$GPGGA,022713.60,3444.4822160,S,07109.4054093,W,2,10,0.8,216.087,M,24.30,M,,*59\r\n", "grades_from_north": "67.024", "longitude": "07109.4054093W", "speed": "0.004"}, "timestamp": 1517624833.733149, "sensorID": "04"}
{"sensorSN": "null", "sensorType": "GPS6000", "data": {"valid": "2", "utc": "022714.50", "latitude": "3444.4822192S", "_RAW": "$GPVTG,51.137,T,51.137,M,0.003,N,0.005,K,D*20\r\n", "grades_from_north": "51.137", "longitude": "07109.4054125W", "speed": "0.005"}, "timestamp": 1517624834.766505, "sensorID": "04"}
{"sensorSN": "null", "sensorType": "GPS6000", "data": {"valid": "2", "utc": "022715.70", "latitude": "3444.4822221S", "_RAW": "$GPGGA,022715.70,3444.4822221,S,07109.4054131,W,2,10,0.8,216.074,M,24.30,M,,*5D\r\n", "grades_from_north": "51.986", "longitude": "07109.4054131W", "speed": "0.004"}, "timestamp": 1517624835.803039, "sensorID": "04"}
{"sensorSN": "null", "sensorType": "GPS6000", "data": {"valid": "2", "utc": "022716.70", "latitude": "3444.4822237S", "_RAW": "$GPVTG,47.536,T,47.536,M,0.003,N,0.005,K,D*20\r\n", "grades_from_north": "47.536", "longitude": "07109.4054191W", "speed": "0.005"}, "timestamp": 1517624836.836434, "sensorID": "04"}
{"sensorSN": "null", "sensorType": "GPS6000", "data": {"valid": "2", "utc": "022717.70", "latitude": "3444.4822251S", "_RAW": "$GPVTG,48.926,T,48.926,M,0.003,N,0.005,K,D*20\r\n", "grades_from_north": "48.926", "longitude": "07109.4054184W", "speed": "0.005"}, "timestamp": 1517624837.854362, "sensorID": "04"}
{"sensorSN": "null", "sensorType": "GPS6000", "data": {"valid": "2", "utc": "022718.60", "latitude": "3444.4822251S", "_RAW": "$GPVTG,47.746,T,47.746,M,0.003,N,0.005,K,D*20\r\n", "grades_from_north": "47.746", "longitude": "07109.4054193W", "speed": "0.005"}, "timestamp": 1517624838.882483, "sensorID": "04"}
{"sensorSN": "null", "sensorType": "GPS6000", "data": {"valid": "2", "utc": "022719.70", "latitude": "3444.4822290S", "_RAW": "$GPVTG,46.779,T,46.779,M,0.003,N,0.005,K,D*20\r\n", "grades_from_north": "46.779", "longitude": "07109.4054232W", "speed": "0.005"}, "timestamp": 1517624839.911289, "sensorID": "04"}
{"sensorSN": "null", "sensorType": "GPS6000", "data": {"valid": "2", "utc": "022720.80", "latitude": "3444.4822295S", "_RAW": "$GPVTG,41.955,T,41.955,M,0.003,N,0.005,K,D*20\r\n", "grades_from_north": "41.955", "longitude": "07109.4054232W", "speed": "0.005"}, "timestamp": 1517624840.945449, "sensorID": "04"}
{"sensorSN": "null", "sensorType": "GPS6000", "data": {"valid": "2", "utc": "022721.80", "latitude": "3444.4822320S", "_RAW": "$GPVTG,31.687,T,31.687,M,0.003,N,0.006,K,D*23\r\n", "grades_from_north": "31.687", "longitude": "07109.4054300W", "speed": "0.006"}, "timestamp": 1517624841.973835, "sensorID": "04"}
{"sensorSN": "null", "sensorType": "GPS6000", "data": {"valid": "2", "utc": "022722.90", "latitude": "3444.4822339S", "_RAW": "$GPGGA,022722.90,3444.4822339,S,07109.4054266,W,2,10,0.8,216.053,M,24.30,M,,*5B\r\n", "grades_from_north": "35.139", "longitude": "07109.4054266W", "speed": "0.005"}, "timestamp": 1517624843.005947, "sensorID": "04"}
{"sensorSN": "null", "sensorType": "GPS6000", "data": {"valid": "2", "utc": "022723.90", "latitude": "3444.4822320S", "_RAW": "$GPVTG,21.612,T,21.612,M,0.003,N,0.005,K,D*20\r\n", "grades_from_north": "21.612", "longitude": "07109.4054294W", "speed": "0.005"}, "timestamp": 1517624844.028239, "sensorID": "04"}
{"sensorSN": "null", "sensorType": "GPS6000", "data": {"valid": "2", "utc": "022724.90", "latitude": "3444.4822363S", "_RAW": "$GPVTG,31.269,T,31.269,M,0.003,N,0.005,K,D*20\r\n", "grades_from_north": "31.269", "longitude": "07109.4054303W", "speed": "0.005"}, "timestamp": 1517624845.056333, "sensorID": "04"}
{"sensorSN": "null", "sensorType": "GPS6000", "data": {"valid": "2", "utc": "022725.90", "latitude": "3444.4822387S", "_RAW": "$GPVTG,22.668,T,22.668,M,0.003,N,0.005,K,D*20\r\n", "grades_from_north": "22.668", "longitude": "07109.4054319W", "speed": "0.005"}, "timestamp": 1517624846.085462, "sensorID": "04"}
{"sensorSN": "null", "sensorType": "GPS6000", "data": {"valid": "2", "utc": "022727.00", "latitude": "3444.4822408S", "_RAW": "$GPGGA,022727.00,3444.4822408,S,07109.4054346,W,2,10,0.8,216.042,M,24.30,M,,*51\r\n", "grades_from_north": "32.104", "longitude": "07109.4054346W", "speed": "0.005"}, "timestamp": 1517624847.10805, "sensorID": "04"}
{"sensorSN": "null", "sensorType": "GPS6000", "data": {"valid": "2", "utc": "022728.00", "latitude": "3444.4822419S", "_RAW": "$GPGGA,022728.00,3444.4822419,S,07109.4054364,W,2,10,0.8,216.035,M,24.30,M,,*5E\r\n", "grades_from_north": "27.878", "longitude": "07109.4054364W", "speed": "0.005"}, "timestamp": 1517624848.137559, "sensorID": "04"}
{"sensorSN": "null", "sensorType": "GPS6000", "data": {"valid": "2", "utc": "022729.10", "latitude": "3444.4822467S", "_RAW": "$GPVTG,28.063,T,28.063,M,0.003,N,0.005,K,D*20\r\n", "grades_from_north": "28.063", "longitude": "07109.4054402W", "speed": "0.005"}, "timestamp": 1517624849.17915, "sensorID": "04"}
{"sensorSN": "null", "sensorType": "GPS6000", "data": {"valid": "2", "utc": "022730.20", "latitude": "3444.4822470S", "_RAW": "$GPGGA,022730.20,3444.4822470,S,07109.4054390,W,2,10,0.8,216.033,M,24.30,M,,*57\r\n", "grades_from_north": "33.730", "longitude": "07109.4054390W", "speed": "0.006"}, "timestamp": 1517624850.286713, "sensorID": "04"}
{"sensorSN": "null", "sensorType": "GPS6000", "data": {"valid": "2", "utc": "022731.20", "latitude": "3444.4822472S", "_RAW": "$GPVTG,30.054,T,30.054,M,0.002,N,0.005,K,D*21\r\n", "grades_from_north": "30.054", "longitude": "07109.4054405W", "speed": "0.005"}, "timestamp": 1517624851.31019, "sensorID": "04"}
{"sensorSN": "null", "sensorType": "GPS6000", "data": {"valid": "2", "utc": "022732.20", "latitude": "3444.4822502S", "_RAW": "$GPVTG,21.908,T,21.908,M,0.003,N,0.005,K,D*20\r\n", "grades_from_north": "21.908", "longitude": "07109.4054457W", "speed": "0.005"}, "timestamp": 1517624852.329188, "sensorID": "04"}
{"sensorSN": "null", "sensorType": "GPS6000", "data": {"valid": "2", "utc": "022733.20", "latitude": "3444.4822504S", "_RAW": "$GPGSV,5,1,17,51,35,308,40,44,27,299,,46,18,289,,48,14,287,*7D\r\n", "grades_from_north": "34.668", "longitude": "07109.4054443W", "speed": "0.004"}, "timestamp": 1517624853.352587, "sensorID": "04"}
{"sensorSN": "null", "sensorType": "GPS6000", "data": {"valid": "2", "utc": "022734.20", "latitude": "3444.4822501S", "_RAW": "$GPGSV,5,2,17,09,65,224,47,23,52,141,49,06,45,246,48,07,44,348,46*7B\r\n", "grades_from_north": "33.206", "longitude": "07109.4054449W", "speed": "0.004"}, "timestamp": 1517624854.382879, "sensorID": "04"}
{"sensorSN": "null", "sensorType": "GPS6000", "data": {"valid": "2", "utc": "022735.20", "latitude": "3444.4822535S", "_RAW": "$GPGSV,5,4,17,16,13,102,37,19,09,287,32,01,08,016,,26,07,130,31*7C\r\n", "grades_from_north": "38.209", "longitude": "07109.4054483W", "speed": "0.004"}, "timestamp": 1517624855.413583, "sensorID": "04"}
{"sensorSN": "null", "sensorType": "GPS6000", "data": {"valid": "2", "utc": "022736.20", "latitude": "3444.4822561S", "_RAW": "$GPGSV,5,3,17,03,40,074,45,30,20,338,37,22,20,064,42,02,16,223,41*74\r\n", "grades_from_north": "42.410", "longitude": "07109.4054482W", "speed": "0.004"}, "timestamp": 1517624856.43685, "sensorID": "04"}
{"sensorSN": "null", "sensorType": "GPS6000", "data": {"valid": "2", "utc": "022737.20", "latitude": "3444.4822588S", "_RAW": "$GPGSV,5,5,17,17,04,309,*47\r\n", "grades_from_north": "34.863", "longitude": "07109.4054513W", "speed": "0.005"}, "timestamp": 1517624857.464983, "sensorID": "04"}
{"sensorSN": "null", "sensorType": "GPS6000", "data": {"valid": "2", "utc": "022738.20", "latitude": "3444.4822584S", "_RAW": "$GPGSV,5,3,17,03,40,074,45,30,20,338,37,22,20,064,42,02,16,223,41*74\r\n", "grades_from_north": "41.304", "longitude": "07109.4054524W", "speed": "0.004"}, "timestamp": 1517624858.485266, "sensorID": "04"}
{"sensorSN": "null", "sensorType": "GPS6000", "data": {"valid": "2", "utc": "022739.20", "latitude": "3444.4822577S", "_RAW": "$GPGSA,M,3,22,03,07,19,30,,,,,,,,3.4,2.1,2.6*31\r\n", "grades_from_north": "35.418", "longitude": "07109.4054521W", "speed": "0.004"}, "timestamp": 1517624859.52447, "sensorID": "04"}
{"sensorSN": "null", "sensorType": "GPS6000", "data": {"valid": "2", "utc": "022740.30", "latitude": "3444.4822614S", "_RAW": "$GPGGA,022740.30,3444.4822614,S,07109.4054552,W,2,11,2.1,216.017,M,24.30,M,,*55\r\n", "grades_from_north": "18.418", "longitude": "07109.4054552W", "speed": "0.004"}, "timestamp": 1517624860.55277, "sensorID": "04"}
{"sensorSN": "null", "sensorType": "GPS6000", "data": {"valid": "2", "utc": "022741.40", "latitude": "3444.4822611S", "_RAW": "$GPGGA,022741.40,3444.4822611,S,07109.4054571,W,2,11,2.1,216.021,M,24.30,M,,*52\r\n", "grades_from_north": "37.454", "longitude": "07109.4054571W", "speed": "0.003"}, "timestamp": 1517624861.58255, "sensorID": "04"}
{"sensorSN": "null", "sensorType": "GPS6000", "data": {"valid": "2", "utc": "022742.30", "latitude": "3444.4822667S", "_RAW": "$GPVTG,28.213,T,28.213,M,0.002,N,0.003,K,D*27\r\n", "grades_from_north": "28.213", "longitude": "07109.4054597W", "speed": "0.003"}, "timestamp": 1517624862.613633, "sensorID": "04"}
{"sensorSN": "null", "sensorType": "GPS6000", "data": {"valid": "2", "utc": "022743.50", "latitude": "3444.4822659S", "_RAW": "$GPGGA,022743.50,3444.4822659,S,07109.4054603,W,2,11,2.1,216.014,M,24.30,M,,*5D\r\n", "grades_from_north": "15.275", "longitude": "07109.4054603W", "speed": "0.004"}, "timestamp": 1517624863.645746, "sensorID": "04"}
{"sensorSN": "null", "sensorType": "GPS6000", "data": {"valid": "2", "utc": "022744.40", "latitude": "3444.4822688S", "_RAW": "$GPVTG,36.640,T,36.640,M,0.002,N,0.003,K,D*27\r\n", "grades_from_north": "36.640", "longitude": "07109.4054578W", "speed": "0.003"}, "timestamp": 1517624864.668259, "sensorID": "04"}
{"sensorSN": "null", "sensorType": "GPS6000", "data": {"valid": "2", "utc": "022745.50", "latitude": "3444.4822699S", "_RAW": "$GPGGA,022745.50,3444.4822699,S,07109.4054614,W,2,11,2.1,216.011,M,24.30,M,,*54\r\n", "grades_from_north": "35.651", "longitude": "07109.4054614W", "speed": "0.003"}, "timestamp": 1517624865.691479, "sensorID": "04"}
{"sensorSN": "null", "sensorType": "GPS6000", "data": {"valid": "2", "utc": "022746.60", "latitude": "3444.4822708S", "_RAW": "$GPVTG,31.745,T,31.745,M,0.002,N,0.003,K,D*27\r\n", "grades_from_north": "31.745", "longitude": "07109.4054630W", "speed": "0.003"}, "timestamp": 1517624866.725375, "sensorID": "04"}
{"sensorSN": "null", "sensorType": "GPS6000", "data": {"valid": "2", "utc": "022747.60", "latitude": "3444.4822734S", "_RAW": "$GPGGA,022747.60,3444.4822734,S,07109.4054663,W,2,11,2.1,216.002,M,24.30,M,,*51\r\n", "grades_from_north": "34.819", "longitude": "07109.4054663W", "speed": "0.003"}, "timestamp": 1517624867.746495, "sensorID": "04"}
{"sensorSN": "null", "sensorType": "GPS6000", "data": {"valid": "2", "utc": "022748.60", "latitude": "3444.4822740S", "_RAW": "$GPVTG,36.125,T,36.125,M,0.001,N,0.002,K,D*25\r\n", "grades_from_north": "36.125", "longitude": "07109.4054658W", "speed": "0.002"}, "timestamp": 1517624868.782337, "sensorID": "04"}
{"sensorSN": "null", "sensorType": "GPS6000", "data": {"valid": "2", "utc": "022749.70", "latitude": "3444.4822788S", "_RAW": "$GPVTG,48.692,T,48.692,M,0.001,N,0.002,K,D*25\r\n", "grades_from_north": "48.692", "longitude": "07109.4054700W", "speed": "0.002"}, "timestamp": 1517624869.815536, "sensorID": "04"}
{"sensorSN": "null", "sensorType": "GPS6000", "data": {"valid": "2", "utc": "022750.70", "latitude": "3444.4822785S", "_RAW": "$GPGGA,022750.70,3444.4822785,S,07109.4054689,W,2,11,2.1,216.000,M,24.30,M,,*5A\r\n", "grades_from_north": "52.372", "longitude": "07109.4054689W", "speed": "0.002"}, "timestamp": 1517624870.84454, "sensorID": "04"}
{"sensorSN": "null", "sensorType": "GPS6000", "data": {"valid": "2", "utc": "022751.70", "latitude": "3444.4822787S", "_RAW": "$GPVTG,41.820,T,41.820,M,0.001,N,0.002,K,D*25\r\n", "grades_from_north": "41.820", "longitude": "07109.4054689W", "speed": "0.002"}, "timestamp": 1517624871.878227, "sensorID": "04"}
{"sensorSN": "null", "sensorType": "GPS6000", "data": {"valid": "2", "utc": "022752.80", "latitude": "3444.4822832S", "_RAW": "$GPVTG,72.358,T,72.358,M,0.001,N,0.003,K,D*24\r\n", "grades_from_north": "72.358", "longitude": "07109.4054734W", "speed": "0.003"}, "timestamp": 1517624872.911659, "sensorID": "04"}
{"sensorSN": "null", "sensorType": "GPS6000", "data": {"valid": "2", "utc": "022753.80", "latitude": "3444.4822819S", "_RAW": "$GPVTG,71.053,T,71.053,M,0.002,N,0.003,K,D*27\r\n", "grades_from_north": "71.053", "longitude": "07109.4054702W", "speed": "0.003"}, "timestamp": 1517624873.929783, "sensorID": "04"}
{"sensorSN": "null", "sensorType": "GPS6000", "data": {"valid": "2", "utc": "022754.80", "latitude": "3444.4822864S", "_RAW": "$GPVTG,71.394,T,71.394,M,0.001,N,0.003,K,D*24\r\n", "grades_from_north": "71.394", "longitude": "07109.4054745W", "speed": "0.003"}, "timestamp": 1517624874.966657, "sensorID": "04"}
{"sensorSN": "null", "sensorType": "GPS6000", "data": {"valid": "2", "utc": "022755.80", "latitude": "3444.4822872S", "_RAW": "$GPVTG,90.517,T,90.517,M,0.002,N,0.003,K,D*27\r\n", "grades_from_north": "90.517", "longitude": "07109.4054750W", "speed": "0.003"}, "timestamp": 1517624875.999501, "sensorID": "04"}
{"sensorSN": "null", "sensorType": "GPS6000", "data": {"valid": "2", "utc": "022756.90", "latitude": "3444.4822888S", "_RAW": "$GPGGA,022756.90,3444.4822888,S,07109.4054745,W,2,10,0.8,215.984,M,24.30,M,,*5D\r\n", "grades_from_north": "88.568", "longitude": "07109.4054745W", "speed": "0.003"}, "timestamp": 1517624877.021251, "sensorID": "04"}
{"sensorSN": "null", "sensorType": "GPS6000", "data": {"valid": "2", "utc": "022757.90", "latitude": "3444.4822912S", "_RAW": "$GPVTG,99.887,T,99.887,M,0.001,N,0.002,K,D*25\r\n", "grades_from_north": "99.887", "longitude": "07109.4054773W", "speed": "0.002"}, "timestamp": 1517624878.054652, "sensorID": "04"}
{"sensorSN": "null", "sensorType": "GPS6000", "data": {"valid": "2", "utc": "022759.00", "latitude": "3444.4822896S", "_RAW": "$GPGGA,022759.00,3444.4822896,S,07109.4054754,W,2,10,0.8,215.991,M,24.30,M,,*50\r\n", "grades_from_north": "99.560", "longitude": "07109.4054754W", "speed": "0.003"}, "timestamp": 1517624879.084053, "sensorID": "04"}
{"sensorSN": "null", "sensorType": "GPS6000", "data": {"valid": "2", "utc": "022800.00", "latitude": "3444.4822956S", "_RAW": "$GPGGA,022800.00,3444.4822956,S,07109.4054791,W,2,10,0.8,215.981,M,24.30,M,,*56\r\n", "grades_from_north": "92.382", "longitude": "07109.4054791W", "speed": "0.003"}, "timestamp": 1517624880.122039, "sensorID": "04"}
{"sensorSN": "null", "sensorType": "GPS6000", "data": {"valid": "2", "utc": "022801.00", "latitude": "3444.4822932S", "_RAW": "$GPVTG,90.274,T,90.274,M,0.002,N,0.003,K,D*27\r\n", "grades_from_north": "90.274", "longitude": "07109.4054766W", "speed": "0.003"}, "timestamp": 1517624881.155531, "sensorID": "04"}
{"sensorSN": "null", "sensorType": "GPS6000", "data": {"valid": "2", "utc": "022802.00", "latitude": "3444.4822933S", "_RAW": "$GPVTG,84.106,T,84.106,M,0.001,N,0.003,K,D*24\r\n", "grades_from_north": "84.106", "longitude": "07109.4054785W", "speed": "0.003"}, "timestamp": 1517624882.183474, "sensorID": "04"}
{"sensorSN": "null", "sensorType": "GPS6000", "data": {"valid": "2", "utc": "022803.10", "latitude": "3444.4822996S", "_RAW": "$GPVTG,113.162,T,113.162,M,0.002,N,0.003,K,D*27\r\n", "grades_from_north": "113.162", "longitude": "07109.4054813W", "speed": "0.003"}, "timestamp": 1517624883.201626, "sensorID": "04"}
{"sensorSN": "null", "sensorType": "GPS6000", "data": {"valid": "2", "utc": "022804.10", "latitude": "3444.4822983S", "_RAW": "$GPVTG,88.292,T,88.292,M,0.001,N,0.003,K,D*24\r\n", "grades_from_north": "88.292", "longitude": "07109.4054815W", "speed": "0.003"}, "timestamp": 1517624884.225044, "sensorID": "04"}
{"sensorSN": "null", "sensorType": "GPS6000", "data": {"valid": "2", "utc": "022805.20", "latitude": "3444.4823017S", "_RAW": "$GPVTG,106.594,T,106.594,M,0.001,N,0.003,K,D*24\r\n", "grades_from_north": "106.594", "longitude": "07109.4054829W", "speed": "0.003"}, "timestamp": 1517624885.253359, "sensorID": "04"}
{"sensorSN": "null", "sensorType": "GPS6000", "data": {"valid": "2", "utc": "022806.20", "latitude": "3444.4823008S", "_RAW": "$GPGSV,5,1,17,51,35,308,39,44,27,299,43,46,18,289,,48,14,287,*74\r\n", "grades_from_north": "96.037", "longitude": "07109.4054839W", "speed": "0.002"}, "timestamp": 1517624886.349967, "sensorID": "04"}
{"sensorSN": "null", "sensorType": "GPS6000", "data": {"valid": "2", "utc": "022807.20", "latitude": "3444.4823058S", "_RAW": "$GPGSV,5,3,17,03,39,074,45,30,20,338,37,22,20,064,41,02,16,223,41*79\r\n", "grades_from_north": "128.420", "longitude": "07109.4054808W", "speed": "0.003"}, "timestamp": 1517624887.409302, "sensorID": "04"}
{"sensorSN": "null", "sensorType": "GPS6000", "data": {"valid": "2", "utc": "022808.20", "latitude": "3444.4823054S", "_RAW": "$GPGSV,5,4,17,16,13,102,36,19,09,287,32,01,08,016,,26,07,130,33*7F\r\n", "grades_from_north": "99.370", "longitude": "07109.4054802W", "speed": "0.002"}, "timestamp": 1517624888.434777, "sensorID": "04"}
{"sensorSN": "null", "sensorType": "GPS6000", "data": {"valid": "2", "utc": "022809.20", "latitude": "3444.4823061S", "_RAW": "$GPGSV,5,5,17,17,04,309,*47\r\n", "grades_from_north": "100.667", "longitude": "07109.4054783W", "speed": "0.003"}, "timestamp": 1517624889.452864, "sensorID": "04"}
{"sensorSN": "null", "sensorType": "GPS6000", "data": {"valid": "2", "utc": "022810.20", "latitude": "3444.4823225S", "_RAW": "$GPGSA,M,3,22,03,07,19,30,,,,,,,,3.4,2.1,2.6*31\r\n", "grades_from_north": "358.951", "longitude": "07109.4054866W", "speed": "0.002"}, "timestamp": 1517624890.482555, "sensorID": "04"}
{"sensorSN": "null", "sensorType": "GPS6000", "data": {"valid": "2", "utc": "022811.20", "latitude": "3444.4823421S", "_RAW": "$GPGSV,5,5,17,17,04,309,*47\r\n", "grades_from_north": "89.304", "longitude": "07109.4054925W", "speed": "0.003"}, "timestamp": 1517624891.515576, "sensorID": "04"}
{"sensorSN": "null", "sensorType": "GPS6000", "data": {"valid": "2", "utc": "022812.20", "latitude": "3444.4823420S", "_RAW": "$GPGSV,5,5,17,17,04,309,*47\r\n", "grades_from_north": "290.714", "longitude": "07109.4054925W", "speed": "0.004"}, "timestamp": 1517624892.543552, "sensorID": "04"}
{"sensorSN": "null", "sensorType": "GPS6000", "data": {"valid": "2", "utc": "022813.30", "latitude": "3444.4823422S", "_RAW": "$GPGGA,022813.30,3444.4823422,S,07109.4054929,W,2,11,2.1,215.961,M,24.30,M,,*51\r\n", "grades_from_north": "295.285", "longitude": "07109.4054929W", "speed": "0.003"}, "timestamp": 1517624893.567793, "sensorID": "04"}
{"sensorSN": "null", "sensorType": "GPS6000", "data": {"valid": "2", "utc": "022814.30", "latitude": "3444.4823463S", "_RAW": "$GPGGA,022814.30,3444.4823463,S,07109.4054944,W,2,11,2.1,215.957,M,24.30,M,,*5D\r\n", "grades_from_north": "308.485", "longitude": "07109.4054944W", "speed": "0.003"}, "timestamp": 1517624894.601072, "sensorID": "04"}
{"sensorSN": "null", "sensorType": "GPS6000", "data": {"valid": "2", "utc": "022815.40", "latitude": "3444.4823484S", "_RAW": "$GPGGA,022815.40,3444.4823484,S,07109.4054934,W,2,11,2.1,215.960,M,24.30,M,,*51\r\n", "grades_from_north": "294.595", "longitude": "07109.4054934W", "speed": "0.003"}, "timestamp": 1517624895.628747, "sensorID": "04"}
{"sensorSN": "null", "sensorType": "GPS6000", "data": {"valid": "2", "utc": "022816.40", "latitude": "3444.4823528S", "_RAW": "$GPVTG,287.014,T,287.014,M,0.001,N,0.002,K,D*25\r\n", "grades_from_north": "287.014", "longitude": "07109.4054943W", "speed": "0.002"}, "timestamp": 1517624896.661625, "sensorID": "04"}
{"sensorSN": "null", "sensorType": "GPS6000", "data": {"valid": "2", "utc": "022817.40", "latitude": "3444.4823527S", "_RAW": "$GPVTG,271.757,T,271.757,M,0.001,N,0.002,K,D*25\r\n", "grades_from_north": "271.757", "longitude": "07109.4054944W", "speed": "0.002"}, "timestamp": 1517624897.693213, "sensorID": "04"}
{"sensorSN": "null", "sensorType": "GPS6000", "data": {"valid": "2", "utc": "022818.50", "latitude": "3444.4823515S", "_RAW": "$GPVTG,289.896,T,289.896,M,0.001,N,0.002,K,D*25\r\n", "grades_from_north": "289.896", "longitude": "07109.4054963W", "speed": "0.002"}, "timestamp": 1517624898.73141, "sensorID": "04"}
{"sensorSN": "null", "sensorType": "GPS6000", "data": {"valid": "2", "utc": "022819.60", "latitude": "3444.4823550S", "_RAW": "$GPGGA,022819.60,3444.4823550,S,07109.4054968,W,2,11,2.1,215.960,M,24.30,M,,*5E\r\n", "grades_from_north": "296.145", "longitude": "07109.4054968W", "speed": "0.002"}, "timestamp": 1517624899.761135, "sensorID": "04"}
{"sensorSN": "null", "sensorType": "GPS6000", "data": {"valid": "2", "utc": "022820.60", "latitude": "3444.4823538S", "_RAW": "$GPVTG,305.710,T,305.710,M,0.001,N,0.003,K,D*24\r\n", "grades_from_north": "305.710", "longitude": "07109.4054971W", "speed": "0.003"}, "timestamp": 1517624900.789501, "sensorID": "04"}
{"sensorSN": "null", "sensorType": "GPS6000", "data": {"valid": "2", "utc": "022821.60", "latitude": "3444.4823601S", "_RAW": "$GPGGA,022821.60,3444.4823601,S,07109.4054977,W,2,11,2.1,215.951,M,24.30,M,,*5E\r\n", "grades_from_north": "293.529", "longitude": "07109.4054977W", "speed": "0.001"}, "timestamp": 1517624901.821095, "sensorID": "04"}
{"sensorSN": "null", "sensorType": "GPS6000", "data": {"valid": "2", "utc": "022822.70", "latitude": "3444.4823574S", "_RAW": "$GPGGA,022822.70,3444.4823574,S,07109.4054984,W,2,11,2.1,215.953,M,24.30,M,,*53\r\n", "grades_from_north": "296.183", "longitude": "07109.4054984W", "speed": "0.002"}, "timestamp": 1517624902.852798, "sensorID": "04"}
{"sensorSN": "null", "sensorType": "GPS6000", "data": {"valid": "2", "utc": "022823.70", "latitude": "3444.4823649S", "_RAW": "$GPVTG,282.610,T,282.610,M,0.001,N,0.002,K,D*25\r\n", "grades_from_north": "282.610", "longitude": "07109.4054983W", "speed": "0.002"}, "timestamp": 1517624903.887471, "sensorID": "04"}
{"sensorSN": "null", "sensorType": "GPS6000", "data": {"valid": "2", "utc": "022824.80", "latitude": "3444.4823632S", "_RAW": "$GPGGA,022824.80,3444.4823632,S,07109.4054989,W,2,11,2.1,215.947,M,24.30,M,,*53\r\n", "grades_from_north": "293.975", "longitude": "07109.4054989W", "speed": "0.002"}, "timestamp": 1517624904.914016, "sensorID": "04"}
{"sensorSN": "null", "sensorType": "GPS6000", "data": {"valid": "2", "utc": "022825.80", "latitude": "3444.4823642S", "_RAW": "$GPVTG,277.184,T,277.184,M,0.001,N,0.002,K,D*25\r\n", "grades_from_north": "277.184", "longitude": "07109.4054996W", "speed": "0.002"}, "timestamp": 1517624905.947384, "sensorID": "04"}
{"sensorSN": "null", "sensorType": "GPS6000", "data": {"valid": "2", "utc": "022826.80", "latitude": "3444.4823677S", "_RAW": "$GPVTG,288.968,T,288.968,M,0.001,N,0.001,K,D*26\r\n", "grades_from_north": "288.968", "longitude": "07109.4054999W", "speed": "0.001"}, "timestamp": 1517624906.975837, "sensorID": "04"}
{"sensorSN": "null", "sensorType": "GPS6000", "data": {"valid": "2", "utc": "022827.80", "latitude": "3444.4823661S", "_RAW": "$GPVTG,313.695,T,313.695,M,0.001,N,0.002,K,D*25\r\n", "grades_from_north": "313.695", "longitude": "07109.4055000W", "speed": "0.002"}, "timestamp": 1517624907.999519, "sensorID": "04"}
{"sensorSN": "null", "sensorType": "GPS6000", "data": {"valid": "2", "utc": "022828.90", "latitude": "3444.4823690S", "_RAW": "$GPGGA,022828.90,3444.4823690,S,07109.4055008,W,2,10,0.8,215.944,M,24.30,M,,*5E\r\n", "grades_from_north": "287.746", "longitude": "07109.4055008W", "speed": "0.001"}, "timestamp": 1517624909.037515, "sensorID": "04"}
{"sensorSN": "null", "sensorType": "GPS6000", "data": {"valid": "2", "utc": "022829.90", "latitude": "3444.4823716S", "_RAW": "$GPGGA,022829.90,3444.4823716,S,07109.4055012,W,2,10,0.8,215.943,M,24.30,M,,*5C\r\n", "grades_from_north": "344.727", "longitude": "07109.4055012W", "speed": "0.001"}, "timestamp": 1517624910.074611, "sensorID": "04"}
{"sensorSN": "null", "sensorType": "GPS6000", "data": {"valid": "2", "utc": "022831.00", "latitude": "3444.4823694S", "_RAW": "$GPGGA,022831.00,3444.4823694,S,07109.4055017,W,2,11,2.2,215.948,M,24.30,M,,*50\r\n", "grades_from_north": "14.164", "longitude": "07109.4055017W", "speed": "0.000"}, "timestamp": 1517624911.102306, "sensorID": "04"}
{"sensorSN": "null", "sensorType": "GPS6000", "data": {"valid": "2", "utc": "022832.00", "latitude": "3444.4823745S", "_RAW": "$GPVTG,5.324,T,5.324,M,0.001,N,0.001,K,D*26\r\n", "grades_from_north": "5.324", "longitude": "07109.4055008W", "speed": "0.001"}, "timestamp": 1517624912.115312, "sensorID": "04"}
{"sensorSN": "null", "sensorType": "GPS6000", "data": {"valid": "2", "utc": "022833.00", "latitude": "3444.4823729S", "_RAW": "$GPVTG,23.494,T,23.494,M,0.000,N,0.001,K,D*27\r\n", "grades_from_north": "23.494", "longitude": "07109.4055014W", "speed": "0.001"}, "timestamp": 1517624913.143675, "sensorID": "04"}
{"sensorSN": "null", "sensorType": "GPS6000", "data": {"valid": "2", "utc": "022834.10", "latitude": "3444.4823791S", "_RAW": "$GPVTG,49.483,T,49.483,M,0.001,N,0.001,K,D*26\r\n", "grades_from_north": "49.483", "longitude": "07109.4054949W", "speed": "0.001"}, "timestamp": 1517624914.188844, "sensorID": "04"}
