timestamp,latitude,speed,grades_from_north,_RAW,valid,utc,longitude
1519765308.407178,-33.98903111833334,18.359,190.005,"$GPVTG,190.005,T,190.005,M,9.913,N,18.359,K,A*17",1,215941.00,-70.69261551666666
1519765309.463191,-33.98907971,18.335,193.576,"$GPVTG,193.576,T,193.576,M,9.900,N,18.335,K,A*1F",1,215942.10,-70.69262808666667
1519765310.507344,-33.989128215,18.355,194.481,"$GPGSV,4,4,13,08,04,360,*42",1,215943.20,-70.692643145
1519765312.700855,-33.989212655,18.280,195.540,"$GPVTG,195.540,T,195.540,M,9.871,N,18.280,K,A*17",1,215945.10,-70.69266968166667
1519765313.7163,-33.98923925166667,18.451,194.575,"$GPGGA,215945.70,3359.3543551,S,07041.5606811,W,1,10,1.0,484.056,M,29.50,M,,*5C",1,215945.70,-70.69267801833334
1519765314.767352,-33.98928851666667,18.463,193.688,"$GPGGA,215946.80,3359.3573110,S,07041.5615529,W,1,10,1.0,484.046,M,29.50,M,,*57",1,215946.80,-70.69269254833333
1519765315.91746,-33.989346743333336,18.324,190.134,"$GPGGA,215948.10,3359.3608046,S,07041.5624898,W,1,10,1.0,484.123,M,29.50,M,,*5A",1,215948.10,-70.69270816333334
1519765316.962243,-33.989382488333334,18.086,191.511,"$GPVTG,191.511,T,191.511,M,9.766,N,18.086,K,A*1A",1,215948.90,-70.69271693833333
1519765318.867197,-33.98944298166667,17.637,194.858,"$GPVTG,194.858,T,194.858,M,9.523,N,17.637,K,A*1A",1,215950.30,-70.69273688666667
1519765319.874818,-33.989468045,17.372,193.265,"$GPVTG,193.265,T,193.265,M,9.380,N,17.372,K,A*11",1,215950.90,-70.69274467666666
1519765320.889095,-33.989548316666664,17.100,189.722,"$GPVTG,189.722,T,189.722,M,9.233,N,17.100,K,A*1F",1,215952.80,-70.69276568333333
1519765321.913173,-33.989620725,17.451,188.577,"$GPGGA,215954.50,3359.3772435,S,07041.5668072,W,1,10,1.0,484.398,M,29.50,M,,*59",1,215954.50,-70.69278012
1519765322.94249,-33.989667856666664,17.566,187.611,"$GPGGA,215955.60,3359.3800714,S,07041.5672970,W,1,10,1.0,484.401,M,29.50,M,,*56",1,215955.60,-70.69278828333333
1519765323.966544,-33.989710585,17.178,180.636,"$GPVTG,180.636,T,180.636,M,9.276,N,17.178,K,A*11",1,215956.60,-70.69279214
1519765324.992606,-33.989757275,16.811,173.456,"$GPGGA,215957.70,3359.3854365,S,07041.5672748,W,1,10,1.0,484.457,M,29.50,M,,*50",1,215957.70,-70.69278791333333
1519765326.088883,-33.989789545,16.649,162.986,"$GPVTG,162.986,T,162.986,M,8.990,N,16.649,K,A*17",1,215958.50,-70.69277846
1519765327.178266,-33.98984219333333,16.895,150.021,"$GPVTG,150.021,T,150.021,M,9.123,N,16.895,K,A*19",1,215959.90,-70.692748065
1519765328.234747,-33.989877918333335,16.791,147.203,"$GPGGA,220000.90,3359.3926751,S,07041.5632757,W,1,10,1.0,484.513,M,29.50,M,,*5F",1,220000.90,-70.69272126166666
1519765329.261067,-33.989911025,16.782,143.628,"$GPVTG,143.628,T,143.628,M,9.062,N,16.782,K,A*14",1,220001.90,-70.69268980666666
1519765330.29023,-33.989945935,16.293,149.081,"$GPVTG,149.081,T,149.081,M,8.798,N,16.293,K,A*12",1,220002.90,-70.692663265
1519765331.3835,-33.98998848833333,15.209,162.207,"$GPGGA,220004.10,3359.3993093,S,07041.5583982,W,1,10,1.0,484.566,M,29.50,M,,*59",1,220004.10,-70.69263997
1519765332.594097,-33.99001522,15.195,174.594,"$GPVTG,174.594,T,174.594,M,8.205,N,15.195,K,A*15",1,220004.80,-70.692633895
1519765333.749603,-33.990039036666666,15.720,182.120,"$GPVTG,182.120,T,182.120,M,8.488,N,15.720,K,A*1E",1,220005.40,-70.69263314833333
1519765334.848233,-33.99007097166667,16.055,188.553,"$GPGSV,4,1,13,51,35,307,45,48,14,286,39,01,76,043,50,03,62,184,50*7B",1,220006.20,-70.69263794833333
1519765335.882598,-33.99009955,17.053,192.545,"$GPVTG,192.545,T,192.545,M,9.208,N,17.053,K,A*10",1,220006.90,-70.69264443
1519765337.510976,-33.99014742166667,18.073,189.144,"$GPVTG,189.144,T,189.144,M,9.758,N,18.073,K,A*1D",1,220008.00,-70.69265576166667
1519765338.520603,-33.99017426333333,18.275,191.081,"$GPGGA,220008.60,3359.4104558,S,07041.5597239,W,1,10,1.0,484.417,M,29.50,M,,*58",1,220008.60,-70.692662065
1519765339.736606,-33.99021639666667,19.339,192.402,"$GPGGA,220009.50,3359.4129838,S,07041.5603852,W,1,10,1.0,484.435,M,29.50,M,,*57",1,220009.50,-70.69267308666667
1519765340.753231,-33.99026893166667,19.338,189.757,"$GPVTG,189.757,T,189.757,M,10.442,N,19.338,K,A*20",1,220010.60,-70.69268376666666
1519765341.844109,-33.99043935666667,19.227,189.556,"$GPGSV,4,2,13,23,62,306,50,22,59,136,49,11,56,354,49,17,28,245,47*7D",1,220014.20,-70.69272183833333
1519765342.922857,-33.99048676,19.330,190.288,"$GPGSV,4,4,13,08,04,360,*42",1,220015.20,-70.69273283666666
1519765343.968361,-33.99053387,19.203,191.689,"$GPGSA,M,3,11,22,03,31,17,09,19,01,23,,,,1.9,1.1,1.6*37",1,220016.20,-70.69274467166667
1519765344.993855,-33.99058086833333,19.101,190.445,"$GPGSA,M,3,11,22,03,31,17,09,14,01,23,,,,1.8,1.2,1.4*3A",1,220017.20,-70.69275462833333
1519765346.054076,-33.99065123,19.051,190.783,"$GPVTG,190.783,T,190.783,M,10.287,N,19.051,K,A*23",1,220018.70,-70.69277091166667
1519765347.098872,-33.990703165,19.196,190.052,"$GPVTG,190.052,T,190.052,M,10.365,N,19.196,K,A*24",1,220019.80,-70.69278227833334
1519765348.140108,-33.99075049,19.187,189.755,"$GPGGA,220020.80,3359.4450294,S,07041.5675103,W,1,09,1.1,484.728,M,29.50,M,,*5C",1,220020.80,-70.69279183833333
1519765349.249985,-33.990802396666666,19.184,190.002,"$GPGGA,220021.90,3359.4481438,S,07041.5681769,W,1,09,1.1,484.748,M,29.50,M,,*57",1,220021.90,-70.69280294833334
1519765350.267523,-33.990844575,19.104,190.879,"$GPVTG,190.879,T,190.879,M,10.315,N,19.104,K,A*28",1,220022.80,-70.692813055
1519765351.276956,-33.990895908333336,19.088,191.704,"$GPVTG,191.704,T,191.704,M,10.307,N,19.088,K,A*2E",1,220023.90,-70.692825865
1519765352.361144,-33.99094743333333,19.095,190.487,"$GPVTG,190.487,T,190.487,M,10.311,N,19.095,K,A*25",1,220025.00,-70.692837565
1519765353.370108,-33.990998991666665,19.036,190.115,"$GPVTG,190.115,T,190.115,M,10.279,N,19.036,K,A*23",1,220026.10,-70.692848595
1519765354.539731,-33.991045925,19.047,190.057,"$GPGGA,220027.10,3359.4627555,S,07041.5715154,W,1,08,1.2,485.042,M,29.50,M,,*57",1,220027.10,-70.69285859
1519765355.603631,-33.991088141666665,19.040,189.211,"$GPGGA,220028.00,3359.4652885,S,07041.5720057,W,1,09,1.1,485.141,M,29.50,M,,*5F",1,220028.00,-70.69286676166666
1519765356.640181,-33.99113022833333,19.037,192.502,"$GPGGA,220028.90,3359.4678137,S,07041.5725704,W,1,08,1.2,485.175,M,29.50,M,,*5F",1,220028.90,-70.69287617333333
1519765357.677166,-33.99119094833333,19.079,190.029,"$GPGGA,220030.20,3359.4714569,S,07041.5733298,W,1,06,2.3,485.294,M,29.50,M,,*5E",1,220030.20,-70.69288883
1519765358.709658,-33.99123664166667,19.022,190.900,"$GPVTG,190.900,T,190.900,M,10.271,N,19.022,K,A*2E",1,220031.20,-70.69289976666667
1519765359.734704,-33.991282203333334,18.811,190.754,"$GPGSV,4,3,13,31,25,119,45,09,24,310,40,19,16,225,,14,12,136,*70",1,220032.20,-70.69291047166666
1519765360.757644,-33.9913232,18.721,190.524,"$GPGGA,220033.10,3359.4793920,S,07041.5751743,W,1,08,1.2,485.404,M,29.50,M,,*54",1,220033.10,-70.69291957166666
1519765361.783583,-33.99137371,18.815,190.137,"$GPVTG,190.137,T,190.137,M,10.159,N,18.815,K,A*2A",1,220034.20,-70.69293059
1519765362.819123,-33.99142009166667,18.879,189.638,"$GPGSV,4,1,13,51,35,307,45,48,14,286,,01,76,043,50,03,62,184,50*71",1,220035.20,-70.69293972166666
1519765363.844342,-33.991466358333334,18.855,190.416,"$GPGSV,4,3,13,31,25,119,44,09,24,310,45,19,16,225,,14,12,136,*74",1,220036.20,-70.69294943666667
1519765364.869974,-33.99151249166667,18.839,190.793,"$GPGSA,M,3,11,22,03,31,17,09,01,23,,,,,2.1,1.2,1.7*36",1,220037.20,-70.69295949833334
1519765365.903629,-33.991558678333334,18.839,190.419,"$GPGSV,4,3,13,31,25,119,,09,24,310,42,19,16,225,,14,12,136,*73",1,220038.20,-70.69296998166666
1519765366.937362,-33.991595583333336,18.809,190.258,"$GPVTG,190.258,T,190.258,M,10.156,N,18.809,K,A*28",1,220039.00,-70.69297808666667
1519765367.972748,-33.99164154,18.785,190.915,"$GPGGA,220040.00,3359.4984924,S,07041.5793233,W,1,07,2.2,486.201,M,29.50,M,,*5D",1,220040.00,-70.69298872166667
1519765369.012045,-33.991687731666666,18.852,190.929,"$GPVTG,190.929,T,190.929,M,10.179,N,18.852,K,A*2B",1,220041.00,-70.69299944166667
1519765370.031149,-33.99175242166667,18.833,190.867,"$GPGGA,220042.40,3359.5051453,S,07041.5808613,W,1,10,1.0,486.095,M,29.50,M,,*55",1,220042.40,-70.693014355
1519765371.087141,-33.991802918333335,18.909,189.807,"$GPVTG,189.807,T,189.807,M,10.210,N,18.909,K,A*28",1,220043.50,-70.693027135
1519765372.126513,-33.99186266,18.700,187.884,"$GPVTG,187.884,T,187.884,M,10.097,N,18.700,K,A*22",1,220044.80,-70.69303781
1519765373.178562,-33.99190885,18.698,191.017,"$GPVTG,191.017,T,191.017,M,10.096,N,18.698,K,A*23",1,220045.80,-70.69304687166667
1519765374.198991,-33.99195928666666,18.576,189.785,"$GPVTG,189.785,T,189.785,M,10.030,N,18.576,K,A*2C",1,220046.90,-70.69305763333334
1519765375.240734,-33.99200475333333,18.563,192.290,"$GPVTG,192.290,T,192.290,M,10.023,N,18.563,K,A*2A",1,220047.90,-70.69306885666667
1519765376.247539,-33.99204985666667,18.381,192.585,"$GPGGA,220048.90,3359.5229914,S,07041.5848726,W,1,10,1.0,485.746,M,29.50,M,,*58",1,220048.90,-70.69308121
1519765377.261186,-33.992093515,17.390,192.252,"$GPVTG,192.252,T,192.252,M,9.390,N,17.390,K,A*1C",1,220049.90,-70.69309227333333
1519765378.298677,-33.992133966666664,16.397,192.280,"$GPGGA,220050.90,3359.5280380,S,07041.5861391,W,1,10,1.0,485.745,M,29.50,M,,*55",1,220050.90,-70.69310231833333
1519765379.323172,-33.99216521333334,15.563,193.360,"$GPVTG,193.360,T,193.360,M,8.403,N,15.563,K,A*18",1,220051.70,-70.693110135
1519765380.352593,-33.992194025,14.482,191.837,"$GPGGA,220052.50,3359.5316415,S,07041.5870577,W,1,10,1.0,485.702,M,29.50,M,,*53",1,220052.50,-70.69311762833334
1519765381.387064,-33.99225160833333,14.394,184.713,"$GPVTG,184.713,T,184.713,M,7.772,N,14.394,K,A*1D",1,220054.10,-70.69312719166666
1519765382.471477,-33.99228783,14.305,185.981,"$GPVTG,185.981,T,185.981,M,7.724,N,14.305,K,A*16",1,220055.10,-70.69313152166667
1519765383.660261,-33.992330515,14.457,194.259,"$GPVTG,194.259,T,194.259,M,7.806,N,14.457,K,A*19",1,220056.30,-70.69314290666667
1519765384.684644,-33.99236253666667,14.377,189.204,"$GPGGA,220057.20,3359.5417522,S,07041.5890533,W,1,09,1.1,485.671,M,29.50,M,,*50",1,220057.20,-70.69315088833334
1519765385.855226,-33.99238799333333,14.659,187.914,"$GPGGA,220057.90,3359.5432796,S,07041.5893325,W,1,08,1.9,485.715,M,29.50,M,,*59",1,220057.90,-70.69315554166667
1519765387.226357,-33.992433741666666,13.370,187.528,"$GPGSV,4,3,13,31,25,120,46,09,24,310,46,19,16,226,42,14,11,136,*79",1,220059.20,-70.69316352833333
1519765388.417848,-33.99245685166667,13.285,182.333,"$GPGGA,220059.90,3359.5474111,S,07041.5899283,W,1,09,1.1,485.930,M,29.50,M,,*5B",1,220059.90,-70.69316547166666
1519765389.448682,-33.992514076666666,8.673,167.699,"$GPVTG,167.699,T,167.699,M,4.683,N,8.673,K,A*20",1,220102.10,-70.69315836333334
1519765390.478019,-33.99253659833333,9.195,165.015,"$GPVTG,165.015,T,165.015,M,4.965,N,9.195,K,A*29",1,220103.10,-70.69314961
1519765391.503756,-33.99255715166667,9.634,171.864,"$GPGGA,220104.00,3359.5534291,S,07041.5886224,W,1,10,1.0,486.194,M,29.50,M,,*5A",1,220104.00,-70.69314370666666
1519765392.529046,-33.992574185,9.679,181.435,"$GPVTG,181.435,T,181.435,M,5.226,N,9.679,K,A*21",1,220104.70,-70.69314307
1519765393.560793,-33.992596295,9.826,181.614,"$GPVTG,181.614,T,181.614,M,5.305,N,9.826,K,A*25",1,220105.60,-70.69314324
1519765394.603054,-33.99261569833333,9.951,173.364,"$GPVTG,173.364,T,173.364,M,5.373,N,9.951,K,A*25",1,220106.40,-70.693142275
1519765395.637711,-33.99263848333333,10.289,177.138,"$GPVTG,177.138,T,177.138,M,5.555,N,10.289,K,A*11",1,220107.30,-70.69314062666666
1519765396.673053,-33.992666721666666,12.265,182.700,"$GPVTG,182.700,T,182.700,M,6.623,N,12.265,K,A*10",1,220108.30,-70.69314073166667
1519765397.703796,-33.99269919333334,13.292,179.844,"$GPGGA,220109.30,3359.5619516,S,07041.5884749,W,1,10,1.0,486.014,M,29.50,M,,*55",1,220109.30,-70.69314124833333
1519765398.742675,-33.992732355,14.868,185.856,"$GPGSA,M,3,11,22,03,31,17,09,14,19,01,23,,,1.7,1.0,1.3*38",1,220110.20,-70.69314304833334
1519765399.779796,-33.992775138333336,17.970,179.712,"$GPGSV,4,1,13,51,35,307,46,48,14,286,43,01,75,042,50,23,62,305,50*7E",1,220111.20,-70.69314297166666
1519765400.812536,-33.99281567166667,18.271,180.839,"$GPGGA,220112.10,3359.5689403,S,07041.5885845,W,1,10,1.0,486.057,M,29.50,M,,*54",1,220112.10,-70.693143075
1519765401.842069,-33.99286106666667,18.290,179.790,"$GPVTG,179.790,T,179.790,M,9.876,N,18.290,K,A*11",1,220113.10,-70.69314510666666
1519765402.872164,-33.992911441666664,18.408,180.762,"$GPVTG,180.762,T,180.762,M,9.940,N,18.408,K,A*12",1,220114.20,-70.693146415
1519765403.905677,-33.992957376666666,18.257,181.523,"$GPGGA,220115.20,3359.5774426,S,07041.5889189,W,1,10,1.0,486.157,M,29.50,M,,*50",1,220115.20,-70.69314864833333
1519765404.946329,-33.992998995,18.450,185.574,"$GPGGA,220116.10,3359.5799397,S,07041.5890647,W,1,10,1.0,486.168,M,29.50,M,,*5F",1,220116.10,-70.69315107833333
1519765405.970831,-33.99304069,18.690,181.546,"$GPGGA,220117.00,3359.5824414,S,07041.5891006,W,1,10,1.0,486.134,M,29.50,M,,*51",1,220117.00,-70.69315167666667
1519765407.278852,-33.99321419666666,19.062,180.627,"$GPVTG,180.627,T,180.627,M,10.293,N,19.062,K,A*26",1,220120.70,-70.69315851
1519765409.16442,-33.993266385,18.975,181.532,"$GPVTG,181.532,T,181.532,M,10.246,N,18.975,K,A*20",1,220121.80,-70.69315970333334
1519765410.278486,-33.99330454166667,19.016,181.947,"$GPVTG,181.947,T,181.947,M,10.268,N,19.016,K,A*21",1,220122.60,-70.69316098833333
1519765411.313055,-33.99334255,19.084,181.756,"$GPGGA,220123.40,3359.6005530,S,07041.5897790,W,1,10,1.0,486.211,M,29.50,M,,*57",1,220123.40,-70.69316298333334
1519765412.344042,-33.99338528,18.963,183.319,"$GPGGA,220124.30,3359.6031168,S,07041.5899312,W,1,10,1.0,486.200,M,29.50,M,,*59",1,220124.30,-70.69316552
1519765413.376611,-33.99342790666667,18.976,183.775,"$GPGSV,4,1,13,51,35,307,46,48,14,286,43,01,75,042,50,23,63,305,50*7F",1,220125.20,-70.69316783333333
1519765414.411319,-33.99347521833333,19.367,182.757,"$GPGGA,220126.20,3359.6085131,S,07041.5901439,W,1,10,1.0,486.249,M,29.50,M,,*5A",1,220126.20,-70.693169065
1519765415.969267,-33.993589055,18.869,180.831,"$GPVTG,180.831,T,180.831,M,10.188,N,18.869,K,A*2D",1,220128.60,-70.693170915
1519765417.000533,-33.993641403333335,19.033,181.327,"$GPVTG,181.327,T,181.327,M,10.277,N,19.033,K,A*28",1,220129.70,-70.69317209166667
1519765418.03279,-33.993688963333334,18.829,181.559,"$GPVTG,181.559,T,181.559,M,10.167,N,18.829,K,A*28",1,220130.70,-70.69317261
1519765419.071036,-33.99373663833333,18.872,183.158,"$GPVTG,183.158,T,183.158,M,10.190,N,18.872,K,A*2E",1,220131.70,-70.69317534666666
1519765420.079861,-33.993784303333335,18.797,182.739,"$GPVTG,182.739,T,182.739,M,10.150,N,18.797,K,A*26",1,220132.70,-70.69317841666667
1519765421.109146,-33.993832123333334,19.211,182.693,"$GPVTG,182.693,T,182.693,M,10.373,N,19.211,K,A*2F",1,220133.70,-70.69318022833333
1519765422.117811,-33.993875175,19.057,183.602,"$GPVTG,183.602,T,183.602,M,10.290,N,19.057,K,A*23",1,220134.60,-70.69318311666666
1519765423.162038,-33.99392786833333,18.973,180.402,"$GPGGA,220135.70,3359.6356721,S,07041.5911168,W,1,10,1.0,486.364,M,29.50,M,,*59",1,220135.70,-70.69318528
1519765424.195052,-33.99397582333334,19.035,180.036,"$GPVTG,180.036,T,180.036,M,10.278,N,19.035,K,A*21",1,220136.70,-70.693185385
1519765425.301879,-33.99403322166667,19.204,177.423,"$GPGGA,220137.90,3359.6419933,S,07041.5912560,W,1,10,1.0,486.412,M,29.50,M,,*5D",1,220137.90,-70.6931876
1519765426.326674,-33.99408102666666,19.108,180.095,"$GPGGA,220138.90,3359.6448616,S,07041.5912975,W,1,10,1.0,486.461,M,29.50,M,,*52",1,220138.90,-70.69318829166667
1519765427.361292,-33.994129013333335,19.217,183.580,"$GPVTG,183.580,T,183.580,M,10.377,N,19.217,K,A*2D",1,220139.90,-70.69318970333333
1519765428.39076,-33.99417212666667,19.181,181.947,"$GPVTG,181.947,T,181.947,M,10.357,N,19.181,K,A*23",1,220140.80,-70.69319115166667
1519765429.420051,-33.99421480833333,19.003,179.458,"$GPGGA,220141.70,3359.6528885,S,07041.5914950,W,1,10,1.0,486.529,M,29.50,M,,*5D",1,220141.70,-70.69319158333333
1519765430.444398,-33.994262793333334,19.264,181.380,"$GPVTG,181.380,T,181.380,M,10.402,N,19.264,K,A*2C",1,220142.70,-70.693192325
1519765431.518917,-33.99430592666667,19.149,183.007,"$GPVTG,183.007,T,183.007,M,10.340,N,19.149,K,A*21",1,220143.60,-70.693194495
1519765433.130735,-33.994358778333336,19.234,181.677,"$GPVTG,181.677,T,181.677,M,10.386,N,19.234,K,A*22",1,220144.70,-70.69319618
1519765434.809581,-33.99441626,19.177,181.292,"$GPGGA,220145.90,3359.6649756,S,07041.5918527,W,1,10,1.0,486.573,M,29.50,M,,*5D",1,220145.90,-70.693197545
1519765435.866063,-33.99445944833333,19.230,182.116,"$GPGGA,220146.80,3359.6675669,S,07041.5919735,W,1,10,1.0,486.583,M,29.50,M,,*52",1,220146.80,-70.69319955833333
1519765436.897297,-33.99449751,19.091,182.873,"$GPGGA,220147.60,3359.6698506,S,07041.5921123,W,1,10,1.0,486.650,M,29.50,M,,*53",1,220147.60,-70.69320187166667
1519765437.924782,-33.994540215,19.047,184.242,"$GPGGA,220148.50,3359.6724129,S,07041.5922879,W,1,10,1.0,486.703,M,29.50,M,,*52",1,220148.50,-70.69320479833334
1519765439.565788,-33.99476704,18.846,181.959,"$GPVTG,181.959,T,181.959,M,10.176,N,18.846,K,A*21",1,220153.30,-70.693211115
1519765441.696642,-33.994814405,18.910,180.652,"$GPVTG,180.652,T,180.652,M,10.210,N,18.910,K,A*20",1,220154.30,-70.69321204333333
1519765442.768883,-33.99486640666667,18.903,183.429,"$GPVTG,183.429,T,183.429,M,10.207,N,18.903,K,A*24",1,220155.40,-70.69321421666666
1519765443.802889,-33.994913473333334,18.676,182.252,"$GPVTG,182.252,T,182.252,M,10.084,N,18.676,K,A*20",1,220156.40,-70.69321624
1519765444.848851,-33.99496516333333,18.794,182.288,"$GPGGA,220157.50,3359.6979098,S,07041.5931018,W,1,10,1.0,486.864,M,29.50,M,,*52",1,220157.50,-70.69321836333333
1519765445.899321,-33.995002713333335,18.768,181.653,"$GPGGA,220158.30,3359.7001628,S,07041.5931877,W,1,10,1.0,486.894,M,29.50,M,,*5F",1,220158.30,-70.693219795
1519765446.925529,-33.99505458,19.002,183.816,"$GPGGA,220159.40,3359.7032748,S,07041.5934161,W,1,10,1.0,486.960,M,29.50,M,,*5F",1,220159.40,-70.69322360166667
1519765447.956788,-33.995097423333334,19.073,184.184,"$GPGGA,220200.30,3359.7058454,S,07041.5936285,W,1,10,1.0,487.044,M,29.50,M,,*50",1,220200.30,-70.69322714166667
1519765448.981152,-33.99514034333333,19.133,183.660,"$GPGSA,M,3,11,22,03,31,17,09,14,19,01,23,,,1.7,1.0,1.3*38",1,220201.20,-70.69323023166666
1519765450.01418,-33.99519264833334,19.072,183.138,"$GPVTG,183.138,T,183.138,M,10.298,N,19.072,K,A*2C",1,220202.30,-70.69323363666666
1519765451.048773,-33.99523531,18.964,182.851,"$GPGSA,M,3,11,22,03,31,17,09,14,19,01,23,,,1.7,1.0,1.3*38",1,220203.20,-70.69323632
1519765452.083522,-33.995282421666666,18.868,184.392,"$GPGGA,220204.20,3359.7169453,S,07041.5943432,W,1,10,1.0,487.091,M,29.50,M,,*51",1,220204.20,-70.69323905333333
1519765453.117736,-33.99532935333333,18.623,184.542,"$GPGGA,220205.20,3359.7197612,S,07041.5946262,W,1,10,1.0,487.117,M,29.50,M,,*5F",1,220205.20,-70.69324377
1519765454.135389,-33.99537139666667,18.574,185.003,"$GPVTG,185.003,T,185.003,M,10.029,N,18.574,K,A*26",1,220206.10,-70.69324742
1519765455.169776,-33.99541805333333,18.653,183.712,"$GPGGA,220207.10,3359.7250832,S,07041.5950633,W,1,10,1.0,487.171,M,29.50,M,,*5D",1,220207.10,-70.693251055
1519765456.193843,-33.99546471666667,18.672,183.354,"$GPGGA,220208.10,3359.7278830,S,07041.5952710,W,1,10,1.0,487.133,M,29.60,M,,*5D",1,220208.10,-70.69325451666667
1519765457.231087,-33.99551157166667,18.755,183.036,"$GPGGA,220209.10,3359.7306943,S,07041.5954564,W,1,10,1.0,487.196,M,29.60,M,,*59",1,220209.10,-70.69325760666666
1519765458.267851,-33.995558081666665,18.603,184.372,"$GPVTG,184.372,T,184.372,M,10.045,N,18.603,K,A*2F",1,220210.10,-70.69326243
1519765459.294858,-33.995581081666664,18.263,186.486,"$GPVTG,186.486,T,186.486,M,9.861,N,18.263,K,A*1B",1,220210.60,-70.69326549
1519765460.35151,-33.995607275,16.910,186.186,"$GPGSA,M,3,11,22,03,31,17,09,19,01,23,,,,2.0,1.1,1.6*3D",1,220211.20,-70.69326957833333
1519765461.366107,-33.99563130166667,15.756,183.867,"$GPVTG,183.867,T,183.867,M,8.507,N,15.756,K,A*19",1,220211.80,-70.69327267166666
1519765462.413355,-33.99565419166667,14.826,185.944,"$GPVTG,185.944,T,185.944,M,8.006,N,14.826,K,A*14",1,220212.40,-70.69327429833334
1519765463.422723,-33.995677675,12.729,187.140,"$GPVTG,187.140,T,187.140,M,6.873,N,12.729,K,A*16",1,220213.10,-70.69327669666667
1519765464.710724,-33.995705,11.272,181.164,"$GPVTG,181.164,T,181.164,M,6.087,N,11.272,K,A*1D",1,220214.00,-70.69327863833334
1519765465.789775,-33.995728328333335,12.188,176.082,$GPG,1,220214.80,-70.69327748333333
1519765466.804553,-33.99584540833333,13.807,173.394,"$GPVTG,173.394,T,173.394,M,7.455,N,13.807,K,A*1D",1,220219.00,-70.69327765833333
1519765467.875232,-33.995884675,15.053,168.782,"$GPVTG,168.782,T,168.782,M,8.128,N,15.053,K,A*12",1,220220.10,-70.693269085
1519765468.94302,-33.99592483,15.179,162.194,"$GPGGA,220221.20,3359.7554898,S,07041.5953329,W,1,09,1.2,487.588,M,29.60,M,,*5F",1,220221.20,-70.69325554833334
1519765469.958795,-33.99596129,15.119,165.335,"$GPGSV,4,1,13,51,35,307,46,48,14,286,41,01,75,041,50,23,63,304,50*7F",1,220222.20,-70.69324348333333
1519765470.991683,-33.99599753166667,14.320,169.098,"$GPGSV,4,1,13,51,35,307,45,48,14,286,41,01,75,041,50,23,63,304,50*7C",1,220223.20,-70.69323260833333
1519765472.028645,-33.99602490666667,13.811,176.426,"$GPGGA,220224.00,3359.7614944,S,07041.5936991,W,1,08,1.7,487.654,M,29.60,M,,*53",1,220224.00,-70.69322831833334
1519765473.048734,-33.996059001666666,13.783,189.995,"$GPGGA,220225.00,3359.7635401,S,07041.5939215,W,1,08,1.7,487.672,M,29.60,M,,*51",1,220225.00,-70.693232025
1519765474.073174,-33.99609643833333,12.928,208.624,"$GPGGA,220226.20,3359.7657863,S,07041.5950948,W,1,06,1.8,487.747,M,29.60,M,,*56",1,220226.20,-70.69325158
1519765475.103874,-33.99612855,14.241,199.586,"$GPGSA,M,3,11,22,03,31,14,01,,,,,,,3.7,2.7,2.6*3E",1,220227.20,-70.69326439166667
1519765476.137342,-33.99616316833333,14.605,193.731,"$GPGSV,4,3,13,31,25,120,47,09,25,310,,19,16,226,,14,11,136,*7D",1,220228.20,-70.69327372333333
1519765477.180696,-33.99620368,17.680,187.970,"$GPGSV,4,2,13,03,62,182,50,22,59,134,48,11,55,355,49,17,28,246,*70",1,220229.20,-70.69328374333334
1519765478.205945,-33.99624838,17.964,186.430,"$GPGSV,4,1,13,51,35,307,,48,14,286,,01,75,041,50,23,63,304,39*77",1,220230.20,-70.693292215
1519765479.238018,-33.996297555,18.077,182.070,"$GPGGA,220231.30,3359.7778533,S,07041.5977457,W,1,09,1.3,487.974,M,29.60,M,,*59",1,220231.30,-70.69329576166666
1519765480.262168,-33.996337833333335,18.206,181.599,"$GPGSA,M,3,11,22,03,31,17,14,19,01,23,,,,2.1,1.3,1.7*33",1,220232.20,-70.69329742333333
1519765481.296685,-33.99638205,17.377,175.476,"$GPGSV,4,2,13,03,62,182,49,22,59,134,50,11,55,355,49,17,28,246,49*7C",1,220233.20,-70.69329452333334
1519765482.337457,-33.996426486666664,17.874,177.393,"$GPGGA,220234.20,3359.7855892,S,07041.5975659,W,1,09,1.2,487.901,M,29.60,M,,*56",1,220234.20,-70.693292765
1519765483.362474,-33.996470998333336,18.308,184.616,"$GPVTG,184.616,T,184.616,M,9.885,N,18.308,K,A*1D",1,220235.20,-70.69329481166666
1519765484.392287,-33.99650745,18.214,183.312,"$GPGGA,220236.00,3359.7904470,S,07041.5978671,W,1,09,1.2,487.979,M,29.60,M,,*5B",1,220236.00,-70.693297785
1519765485.413799,-33.996557841666665,18.241,184.163,"$GPGGA,220237.10,3359.7934705,S,07041.5981347,W,1,08,1.7,488.072,M,29.60,M,,*56",1,220237.10,-70.693302245
1519765486.433153,-33.99660370666667,18.501,183.862,"$GPVTG,183.862,T,183.862,M,9.990,N,18.501,K,A*17",1,220238.10,-70.693305475
1519765487.475004,-33.996654135,18.554,183.543,"$GPGSV,4,2,13,03,62,182,50,22,59,134,49,11,55,355,49,17,28,246,43*76",1,220239.20,-70.69330838666667
1519765488.542529,-33.99671736166667,18.101,180.905,"$GPVTG,180.905,T,180.905,M,9.774,N,18.101,K,A*17",1,220240.60,-70.69331105666667
1519765489.619637,-33.99678929,18.071,174.046,"$GPGGA,220242.20,3359.8073574,S,07041.5984319,W,1,09,1.3,488.476,M,29.60,M,,*5D",1,220242.20,-70.69330719833333
1519765490.696501,-33.99683675,17.656,164.370,"$GPGGA,220243.30,3359.8102050,S,07041.5977024,W,1,09,1.2,488.443,M,29.60,M,,*5F",1,220243.30,-70.69329504
1519765491.742438,-33.996873655,17.003,158.768,"$GPGSA,M,3,11,22,03,31,17,09,14,01,23,,,,1.8,1.2,1.4*3A",1,220244.20,-70.69327940833334
1519765492.762274,-33.99692164166667,17.237,157.641,"$GPVTG,157.641,T,157.641,M,9.307,N,17.237,K,A*1E",1,220245.40,-70.693255115
1519765493.787304,-33.996952818333334,16.898,156.429,"$GPGSV,4,4,13,08,03,00.,*5E",1,220246.20,-70.69323874166666
1519765494.812064,-33.99699248333334,16.616,163.271,"$GPVTG,163.271,T,163.271,M,8.972,N,16.616,K,A*11",1,220247.20,-70.69322196666667
1519765495.849971,-33.99702007,15.971,169.190,"$GPVTG,169.190,T,169.190,M,8.623,N,15.971,K,A*17",1,220247.90,-70.69321354666667
1519765496.881807,-33.997051191666664,15.235,182.470,"$GPVTG,182.470,T,182.470,M,8.226,N,15.235,K,A*1D",1,220248.70,-70.69321186666667
1519765497.919686,-33.997078611666666,13.620,195.065,"$GPGGA,220249.50,3359.8247167,S,07041.5931364,W,1,07,1.8,488.731,M,29.60,M,,*53",1,220249.50,-70.69321894
1519765498.949622,-33.997101031666666,12.638,210.959,"$GPVTG,210.959,T,210.959,M,6.824,N,12.638,K,A*15",1,220250.30,-70.69323109
1519765500.198844,-33.99717252333333,10.390,198.798,"$GPVTG,198.798,T,198.798,M,5.610,N,10.390,K,A*1A",1,220253.50,-70.693272475
1519765501.933775,-33.99719916833333,8.789,188.472,"$GPVTG,188.472,T,188.472,M,4.746,N,8.789,K,A*2C",1,220254.70,-70.69327969833333
1519765503.118845,-33.997222343333334,8.740,192.139,"$GPVTG,192.139,T,192.139,M,4.719,N,8.740,K,A*23",1,220255.80,-70.69328533833334
1519765504.168627,-33.99724517833333,9.498,186.472,"$GPVTG,186.472,T,186.472,M,5.129,N,9.498,K,A*20",1,220256.80,-70.69329004833334
1519765505.25834,-33.99727704833333,13.344,190.504,"$GPVTG,190.504,T,190.504,M,7.205,N,13.344,K,A*12",1,220257.90,-70.69329768833333
1519765506.340514,-33.99731989,17.366,189.923,"$GPVTG,189.923,T,189.923,M,9.377,N,17.366,K,A*1C",1,220259.00,-70.69330654
1519765507.365549,-33.997355205,18.275,184.596,"$GPVTG,184.596,T,184.596,M,9.867,N,18.275,K,A*1A",1,220259.80,-70.69331180333333
1519765508.395094,-33.99739444833333,17.661,185.348,"$GPVTG,185.348,T,185.348,M,9.536,N,17.661,K,A*1D",1,220300.70,-70.69331669833333
1519765509.419055,-33.99743409333333,17.665,184.710,"$GPVTG,184.710,T,184.710,M,9.538,N,17.665,K,A*17",1,220301.60,-70.69332038166667
1519765510.456803,-33.997469323333334,17.619,183.683,"$GPVTG,183.683,T,183.683,M,9.514,N,17.619,K,A*12",1,220302.40,-70.69332234
1519765511.481607,-33.997504315,17.570,183.351,"$GPGSA,M,3,11,22,03,31,01,23,,,,,,,4.2,2.3,3.5*3E",1,220303.20,-70.693324695
1519765512.509142,-33.99755188,17.377,183.060,"$GPGGA,220304.30,3359.8531128,S,07041.5996464,W,1,06,2.3,489.289,M,29.60,M,,*54",1,220304.30,-70.69332744
1519765513.606771,-33.997624136666666,17.109,182.092,"$GPVTG,182.092,T,182.092,M,9.238,N,17.109,K,A*1D",1,220306.00,-70.693330965
1519765514.70803,-33.99767314666666,15.968,171.379,"$GPGSA,M,3,11,22,03,31,17,19,01,23,,,,,2.4,1.3,2.0*37",1,220307.20,-70.69332827
1519765515.77485,-33.99771568333333,15.598,143.980,"$GPVTG,143.980,T,143.980,M,8.422,N,15.598,K,A*1F",1,220308.40,-70.69330783833334
1519765516.853806,-33.997742853333335,16.476,118.956,"$GPVTG,118.956,T,118.956,M,8.896,N,16.476,K,A*1E",1,220309.50,-70.69326787166666
1519765517.891636,-33.99775693,17.477,108.926,"$GPGGA,220310.40,3359.8654158,S,07041.5935424,W,1,08,1.2,488.904,M,29.60,M,,*5F",1,220310.40,-70.69322570666667
1519765518.922256,-33.99776949666666,17.828,99.913,"$GPVTG,99.913,T,99.913,M,9.626,N,17.828,K,A*1C",1,220311.60,-70.69316276
1519765519.951303,-33.99777530833333,17.985,95.711,"$GPVTG,95.711,T,95.711,M,9.711,N,17.985,K,A*1F",1,220312.60,-70.69310872333334
1519765520.96163,-33.997780033333335,18.340,95.642,"$GPVTG,95.642,T,95.642,M,9.903,N,18.340,K,A*1E",1,220313.60,-70.69305375166667
1519765521.972919,-33.99778389833333,18.293,95.844,"$GPVTG,95.844,T,95.844,M,9.878,N,18.293,K,A*1C",1,220314.40,-70.69301009666667
1519765523.028844,-33.99779189833333,18.337,98.816,"$GPVTG,98.816,T,98.816,M,9.901,N,18.337,K,A*1C",1,220315.70,-70.69293890166666
1519765524.064997,-33.99780185,18.225,103.260,"$GPGGA,220316.70,3359.8681110,S,07041.5731002,W,1,08,1.2,489.225,M,29.60,M,,*5D",1,220316.70,-70.69288500333333
1519765525.089127,-33.997812115,16.464,103.521,"$GPVTG,103.521,T,103.521,M,8.890,N,16.464,K,A*1B",1,220317.70,-70.69283471
1519765526.190975,-33.9978231,15.468,102.263,"$GPGGA,220318.90,3359.8693860,S,07041.5667616,W,1,10,1.0,489.397,M,29.60,M,,*52",1,220318.90,-70.69277936
1519765527.347634,-33.997829525,13.432,95.326,"$GPVTG,95.326,T,95.326,M,7.253,N,13.432,K,A*17",1,220320.00,-70.69273219833333
1519765528.38694,-33.99782821,12.183,79.421,"$GPVTG,79.421,T,79.421,M,6.579,N,12.183,K,A*17",1,220321.00,-70.692694455
1519765529.487381,-33.997817366666666,11.045,56.693,"$GPVTG,56.693,T,56.693,M,5.964,N,11.045,K,A*1C",1,220322.10,-70.69266129833333
1519765530.538842,-33.997798895,10.577,49.580,"$GPGGA,220323.20,3359.8679337,S,07041.5581168,W,1,09,1.3,489.287,M,29.60,M,,*52",1,220323.20,-70.69263528
1519765531.632109,-33.997785415,10.630,66.775,"$GPGSV,4,2,13,03,62,181,50,22,59,134,49,11,54,355,49,17,28,247,48*7E",1,220324.20,-70.69260894
1519765532.670232,-33.997782415,11.499,97.510,"$GPGSV,4,3,13,09,25,310,43,31,25,121,47,19,16,226,44,14,10,136,*7A",1,220325.20,-70.69257675
