sensorSN,sensorID,timestamp,data,sensorType
null,04,1517624718.773656,"{'longitude': '07109.4049853W', 'grades_from_north': '89.726', 'utc': '022518.60', 'speed': '0.006', '_RAW': '$GPVTG,89.726,T,89.726,M,0.003,N,0.006,K,A*26\r\n', 'latitude': '3444.4821916S', 'valid': '1'}",GPS6000
null,04,1517624719.811651,"{'longitude': '07109.4049981W', 'grades_from_north': '82.666', 'utc': '022519.70', 'speed': '0.005', '_RAW': '$GPGGA,022519.70,3444.4821876,S,07109.4049981,W,1,10,5.9,216.327,M,24.30,M,,*55\r\n', 'latitude': '3444.4821876S', 'valid': '1'}",GPS6000
null,04,1517624720.862621,"{'longitude': '07109.4049956W', 'grades_from_north': '83.625', 'utc': '022520.70', 'speed': '0.005', '_RAW': '$GPGGA,022520.70,3444.4821893,S,07109.4049956,W,1,10,5.9,216.328,M,24.30,M,,*51\r\n', 'latitude': '3444.4821893S', 'valid': '1'}",GPS6000
null,04,1517624721.922206,"{'longitude': '07109.4050064W', 'grades_from_north': '68.707', 'utc': '022521.80', 'speed': '0.005', '_RAW': '$GPVTG,68.707,T,68.707,M,0.003,N,0.005,K,A*25\r\n', 'latitude': '3444.4821841S', 'valid': '1'}",GPS6000
null,04,1517624722.955164,"{'longitude': '07109.4050071W', 'grades_from_north': '71.727', 'utc': '022522.80', 'speed': '0.004', '_RAW': '$GPVTG,71.727,T,71.727,M,0.002,N,0.004,K,A*25\r\n', 'latitude': '3444.4821853S', 'valid': '1'}",GPS6000
null,04,1517624725.131091,"{'longitude': '07109.4050137W', 'grades_from_north': '74.330', 'utc': '022525.00', 'speed': '0.005', '_RAW': '$GPVTG,74.330,T,74.330,M,0.003,N,0.005,K,D*20\r\n', 'latitude': '3444.4821738S', 'valid': '2'}",GPS6000
null,04,1517624727.274276,"{'longitude': '07109.4050264W', 'grades_from_north': '83.045', 'utc': '022527.10', 'speed': '0.005', '_RAW': '$GPVTG,83.045,T,83.045,M,0.002,N,0.005,K,D*21\r\n', 'latitude': '3444.4821708S', 'valid': '2'}",GPS6000
null,04,1517624729.330448,"{'longitude': '07109.4050354W', 'grades_from_north': '100.786', 'utc': '022529.20', 'speed': '0.004', '_RAW': '$GPGSV,5,1,17,51,35,308,40,44,27,299,,46,18,289,,48,14,287,*7D\r\n', 'latitude': '3444.4821691S', 'valid': '2'}",GPS6000
null,04,1517624731.509382,"{'longitude': '07109.4050378W', 'grades_from_north': '94.258', 'utc': '022531.20', 'speed': '0.004', '_RAW': '$GPGSV,5,5,17,17,04,308,*46\r\n', 'latitude': '3444.4821698S', 'valid': '2'}",GPS6000
null,04,1517624733.556566,"{'longitude': '07109.4050461W', 'grades_from_north': '92.998', 'utc': '022533.20', 'speed': '0.004', '_RAW': '$GPGSA,M,3,02,06,16,22,03,26,07,09,23,30,,,1.5,0.8,1.3*38\r\n', 'latitude': '3444.4821674S', 'valid': '2'}",GPS6000
null,04,1517624735.687113,"{'longitude': '07109.4050562W', 'grades_from_north': '91.294', 'utc': '022535.60', 'speed': '0.005', '_RAW': '$GPGGA,022535.60,3444.4821651,S,07109.4050562,W,2,10,0.8,216.308,M,24.30,M,,*52\r\n', 'latitude': '3444.4821651S', 'valid': '2'}",GPS6000
null,04,1517624737.748297,"{'longitude': '07109.4050666W', 'grades_from_north': '96.814', 'utc': '022537.60', 'speed': '0.005', '_RAW': '$GPVTG,96.814,T,96.814,M,0.003,N,0.005,K,D*20\r\n', 'latitude': '3444.4821618S', 'valid': '2'}",GPS6000
null,04,1517624739.942965,"{'longitude': '07109.4050773W', 'grades_from_north': '107.134', 'utc': '022539.80', 'speed': '0.004', '_RAW': '$GPVTG,107.134,T,107.134,M,0.002,N,0.004,K,D*20\r\n', 'latitude': '3444.4821601S', 'valid': '2'}",GPS6000
null,04,1517624742.073394,"{'longitude': '07109.4050861W', 'grades_from_north': '99.621', 'utc': '022541.90', 'speed': '0.004', '_RAW': '$GPVTG,99.621,T,99.621,M,0.002,N,0.004,K,D*20\r\n', 'latitude': '3444.4821563S', 'valid': '2'}",GPS6000
null,04,1517624744.122085,"{'longitude': '07109.4050859W', 'grades_from_north': '97.617', 'utc': '022544.00', 'speed': '0.004', '_RAW': '$GPVTG,97.617,T,97.617,M,0.002,N,0.004,K,D*20\r\n', 'latitude': '3444.4821561S', 'valid': '2'}",GPS6000
null,04,1517624746.22076,"{'longitude': '07109.4050980W', 'grades_from_north': '96.636', 'utc': '022546.10', 'speed': '0.003', '_RAW': '$GPGGA,022546.10,3444.4821545,S,07109.4050980,W,2,11,2.0,216.298,M,24.30,M,,*54\r\n', 'latitude': '3444.4821545S', 'valid': '2'}",GPS6000
null,04,1517624748.303821,"{'longitude': '07109.4051063W', 'grades_from_north': '128.046', 'utc': '022548.20', 'speed': '0.004', '_RAW': '$GPGGA,022548.20,3444.4821540,S,07109.4051063,W,2,10,0.8,216.297,M,24.30,M,,*5D\r\n', 'latitude': '3444.4821540S', 'valid': '2'}",GPS6000
null,04,1517624750.353879,"{'longitude': '07109.4051169W', 'grades_from_north': '113.732', 'utc': '022550.20', 'speed': '0.002', '_RAW': '$GPVTG,113.732,T,113.732,M,0.001,N,0.002,K,D*25\r\n', 'latitude': '3444.4821503S', 'valid': '2'}",GPS6000
null,04,1517624752.443805,"{'longitude': '07109.4051259W', 'grades_from_north': '95.110', 'utc': '022552.20', 'speed': '0.003', '_RAW': '$GPGSV,5,4,17,16,12,101,39,19,09,287,,01,08,016,,26,07,129,35*7D\r\n', 'latitude': '3444.4821471S', 'valid': '2'}",GPS6000
null,04,1517624754.509862,"{'longitude': '07109.4051374W', 'grades_from_north': '80.351', 'utc': '022554.20', 'speed': '0.002', '_RAW': '$GPGSV,5,5,17,17,04,308,*46\r\n', 'latitude': '3444.4821455S', 'valid': '2'}",GPS6000
null,04,1517624756.59163,"{'longitude': '07109.4051380W', 'grades_from_north': '93.173', 'utc': '022556.30', 'speed': '0.002', '_RAW': '$GPGGA,022556.30,3444.4821456,S,07109.4051380,W,2,10,0.8,216.291,M,24.30,M,,*5D\r\n', 'latitude': '3444.4821456S', 'valid': '2'}",GPS6000
null,04,1517624758.649649,"{'longitude': '07109.4051467W', 'grades_from_north': '123.660', 'utc': '022558.40', 'speed': '0.002', '_RAW': '$GPVTG,123.660,T,123.660,M,0.001,N,0.002,K,D*25\r\n', 'latitude': '3444.4821468S', 'valid': '2'}",GPS6000
null,04,1517624760.713732,"{'longitude': '07109.4051562W', 'grades_from_north': '111.437', 'utc': '022600.50', 'speed': '0.002', '_RAW': '$GPVTG,111.437,T,111.437,M,0.001,N,0.002,K,D*25\r\n', 'latitude': '3444.4821430S', 'valid': '2'}",GPS6000
null,04,1517624763.268091,"{'longitude': '07109.4051640W', 'grades_from_north': '97.394', 'utc': '022603.20', 'speed': '0.004', '_RAW': '$GPGGA,022603.20,3444.4821442,S,07109.4051640,W,2,10,0.8,216.277,M,24.30,M,,*5B\r\n', 'latitude': '3444.4821442S', 'valid': '2'}",GPS6000
null,04,1517624765.569275,"{'longitude': '07109.4051758W', 'grades_from_north': '69.386', 'utc': '022605.70', 'speed': '0.002', '_RAW': '$GPVTG,69.386,T,69.386,M,0.001,N,0.002,K,D*25\r\n', 'latitude': '3444.4821401S', 'valid': '2'}",GPS6000
null,04,1517624768.208022,"{'longitude': '07109.4051833W', 'grades_from_north': '33.680', 'utc': '022608.20', 'speed': '0.003', '_RAW': '$GPGSV,5,1,17,51,35,308,40,44,27,299,,46,18,289,,48,14,287,*7D\r\n', 'latitude': '3444.4821381S', 'valid': '2'}",GPS6000
null,04,1517624771.28855,"{'longitude': '07109.4051908W', 'grades_from_north': '101.234', 'utc': '022611.10', 'speed': '0.001', '_RAW': '$GPVTG,101.234,T,101.234,M,0.001,N,0.001,K,D*26\r\n', 'latitude': '3444.4821401S', 'valid': '2'}",GPS6000
null,04,1517624773.353048,"{'longitude': '07109.4052009W', 'grades_from_north': '118.132', 'utc': '022613.20', 'speed': '0.001', '_RAW': '$GPVTG,118.132,T,118.132,M,0.000,N,0.001,K,D*27\r\n', 'latitude': '3444.4821398S', 'valid': '2'}",GPS6000
null,04,1517624775.4263,"{'longitude': '07109.4052099W', 'grades_from_north': '2.066', 'utc': '022615.20', 'speed': '0.003', '_RAW': '$GPGSV,5,3,17,03,40,075,46,22,20,064,42,30,19,338,35,02,15,223,40*7C\r\n', 'latitude': '3444.4821370S', 'valid': '2'}",GPS6000
null,04,1517624778.337674,"{'longitude': '07109.4052172W', 'grades_from_north': '1.361', 'utc': '022618.20', 'speed': '0.002', '_RAW': '$GPVTG,1.361,T,1.361,M,0.001,N,0.002,K,D*25\r\n', 'latitude': '3444.4821399S', 'valid': '2'}",GPS6000
null,04,1517624780.563665,"{'longitude': '07109.4052265W', 'grades_from_north': '352.750', 'utc': '022621.00', 'speed': '0.004', '_RAW': '$GPVTG,352.750,T,352.750,M,0.002,N,0.004,K,D*20\r\n', 'latitude': '3444.4821389S', 'valid': '2'}",GPS6000
null,04,1517624783.254552,"{'longitude': '07109.4052321W', 'grades_from_north': '5.331', 'utc': '022623.10', 'speed': '0.003', '_RAW': '$GPVTG,5.331,T,5.331,M,0.002,N,0.003,K,D*27\r\n', 'latitude': '3444.4821416S', 'valid': '2'}",GPS6000
null,04,1517624785.311934,"{'longitude': '07109.4052418W', 'grades_from_north': '3.840', 'utc': '022625.10', 'speed': '0.003', '_RAW': '$GPVTG,3.840,T,3.840,M,0.002,N,0.003,K,D*27\r\n', 'latitude': '3444.4821409S', 'valid': '2'}",GPS6000
null,04,1517624787.370886,"{'longitude': '07109.4052492W', 'grades_from_north': '12.518', 'utc': '022627.20', 'speed': '0.003', '_RAW': '$GPGSV,5,2,17,09,65,225,48,23,53,141,49,06,45,246,48,07,43,348,45*70\r\n', 'latitude': '3444.4821441S', 'valid': '2'}",GPS6000
null,04,1517624789.434679,"{'longitude': '07109.4052568W', 'grades_from_north': '6.501', 'utc': '022629.20', 'speed': '0.003', '_RAW': '$GPGSV,5,2,17,09,65,225,48,23,53,141,49,06,45,246,48,07,43,348,45*70\r\n', 'latitude': '3444.4821451S', 'valid': '2'}",GPS6000
null,04,1517624791.507504,"{'longitude': '07109.4052567W', 'grades_from_north': '5.529', 'utc': '022631.20', 'speed': '0.003', '_RAW': '$GPGSV,5,4,17,16,13,101,38,19,09,287,,01,08,016,,26,07,129,31*79\r\n', 'latitude': '3444.4821461S', 'valid': '2'}",GPS6000
null,04,1517624793.576541,"{'longitude': '07109.4052644W', 'grades_from_north': '18.245', 'utc': '022633.30', 'speed': '0.002', '_RAW': '$GPGGA,022633.30,3444.4821457,S,07109.4052644,W,2,10,0.8,216.225,M,24.30,M,,*5D\r\n', 'latitude': '3444.4821457S', 'valid': '2'}",GPS6000
null,04,1517624795.647254,"{'longitude': '07109.4052714W', 'grades_from_north': '357.220', 'utc': '022635.40', 'speed': '0.004', '_RAW': '$GPVTG,357.220,T,357.220,M,0.002,N,0.004,K,D*20\r\n', 'latitude': '3444.4821469S', 'valid': '2'}",GPS6000
null,04,1517624797.712536,"{'longitude': '07109.4052774W', 'grades_from_north': '1.037', 'utc': '022637.50', 'speed': '0.003', '_RAW': '$GPVTG,1.037,T,1.037,M,0.002,N,0.003,K,D*27\r\n', 'latitude': '3444.4821482S', 'valid': '2'}",GPS6000
null,04,1517624799.775753,"{'longitude': '07109.4052840W', 'grades_from_north': '2.923', 'utc': '022639.60', 'speed': '0.003', '_RAW': '$GPVTG,2.923,T,2.923,M,0.002,N,0.003,K,D*27\r\n', 'latitude': '3444.4821527S', 'valid': '2'}",GPS6000
null,04,1517624801.843179,"{'longitude': '07109.4052923W', 'grades_from_north': '353.283', 'utc': '022641.70', 'speed': '0.003', '_RAW': '$GPVTG,353.283,T,353.283,M,0.002,N,0.003,K,D*27\r\n', 'latitude': '3444.4821536S', 'valid': '2'}",GPS6000
null,04,1517624803.909733,"{'longitude': '07109.4052918W', 'grades_from_north': '6.839', 'utc': '022643.80', 'speed': '0.002', '_RAW': '$GPGGA,022643.80,3444.4821541,S,07109.4052918,W,2,10,0.8,216.193,M,24.30,M,,*5F\r\n', 'latitude': '3444.4821541S', 'valid': '2'}",GPS6000
null,04,1517624805.979619,"{'longitude': '07109.4052944W', 'grades_from_north': '343.986', 'utc': '022645.90', 'speed': '0.001', '_RAW': '$GPGGA,022645.90,3444.4821572,S,07109.4052944,W,2,10,0.8,216.184,M,24.30,M,,*57\r\n', 'latitude': '3444.4821572S', 'valid': '2'}",GPS6000
null,04,1517624808.018929,"{'longitude': '07109.4053021W', 'grades_from_north': '43.827', 'utc': '022647.90', 'speed': '0.001', '_RAW': '$GPGGA,022647.90,3444.4821605,S,07109.4053021,W,2,10,0.8,216.179,M,24.30,M,,*5F\r\n', 'latitude': '3444.4821605S', 'valid': '2'}",GPS6000
null,04,1517624810.048089,"{'longitude': '07109.4053542W', 'grades_from_north': '112.045', 'utc': '022649.90', 'speed': '0.008', '_RAW': '$GPVTG,112.045,T,112.045,M,0.004,N,0.008,K,D*2A\r\n', 'latitude': '3444.4821844S', 'valid': '2'}",GPS6000
null,04,1517624812.12134,"{'longitude': '07109.4053617W', 'grades_from_north': '111.352', 'utc': '022652.00', 'speed': '0.008', '_RAW': '$GPGGA,022652.00,3444.4821882,S,07109.4053617,W,2,10,0.8,216.136,M,24.30,M,,*5B\r\n', 'latitude': '3444.4821882S', 'valid': '2'}",GPS6000
null,04,1517624814.174027,"{'longitude': '07109.4053606W', 'grades_from_north': '111.295', 'utc': '022654.00', 'speed': '0.007', '_RAW': '$GPVTG,111.295,T,111.295,M,0.004,N,0.007,K,D*25\r\n', 'latitude': '3444.4821879S', 'valid': '2'}",GPS6000
null,04,1517624816.243126,"{'longitude': '07109.4053684W', 'grades_from_north': '115.389', 'utc': '022656.10', 'speed': '0.007', '_RAW': '$GPVTG,115.389,T,115.389,M,0.004,N,0.007,K,D*25\r\n', 'latitude': '3444.4821914S', 'valid': '2'}",GPS6000
null,04,1517624818.30422,"{'longitude': '07109.4053753W', 'grades_from_north': '112.837', 'utc': '022658.10', 'speed': '0.007', '_RAW': '$GPVTG,112.837,T,112.837,M,0.004,N,0.007,K,D*25\r\n', 'latitude': '3444.4821946S', 'valid': '2'}",GPS6000
null,04,1517624820.36422,"{'longitude': '07109.4053808W', 'grades_from_north': '108.724', 'utc': '022700.20', 'speed': '0.006', '_RAW': '$GPGSV,5,1,17,51,35,308,40,44,27,299,,46,18,289,,48,14,287,*7D\r\n', 'latitude': '3444.4821981S', 'valid': '2'}",GPS6000
null,04,1517624822.412939,"{'longitude': '07109.4053873W', 'grades_from_north': '112.557', 'utc': '022702.20', 'speed': '0.005', '_RAW': '$GPGSV,5,3,17,03,40,074,45,22,20,064,41,30,20,338,39,02,16,223,40*78\r\n', 'latitude': '3444.4822025S', 'valid': '2'}",GPS6000
null,04,1517624824.460278,"{'longitude': '07109.4053920W', 'grades_from_north': '104.707', 'utc': '022704.20', 'speed': '0.004', '_RAW': '$GPGSV,5,3,17,03,40,074,45,22,20,064,41,30,20,338,38,02,16,223,40*79\r\n', 'latitude': '3444.4822059S', 'valid': '2'}",GPS6000
null,04,1517624826.524009,"{'longitude': '07109.4053905W', 'grades_from_north': '88.132', 'utc': '022706.20', 'speed': '0.004', '_RAW': '$GPGSA,M,3,02,06,16,22,03,26,07,09,23,30,,,1.5,0.8,1.3*38\r\n', 'latitude': '3444.4822063S', 'valid': '2'}",GPS6000
null,04,1517624828.579852,"{'longitude': '07109.4053980W', 'grades_from_north': '74.873', 'utc': '022708.40', 'speed': '0.003', '_RAW': '$GPGGA,022708.40,3444.4822089,S,07109.4053980,W,2,10,0.8,216.095,M,24.30,M,,*58\r\n', 'latitude': '3444.4822089S', 'valid': '2'}",GPS6000
null,04,1517624830.639621,"{'longitude': '07109.4054043W', 'grades_from_north': '50.462', 'utc': '022710.50', 'speed': '0.004', '_RAW': '$GPGGA,022710.50,3444.4822140,S,07109.4054043,W,2,10,0.8,216.088,M,24.30,M,,*59\r\n', 'latitude': '3444.4822140S', 'valid': '2'}",GPS6000
null,04,1517624832.705266,"{'longitude': '07109.4054084W', 'grades_from_north': '68.846', 'utc': '022712.50', 'speed': '0.004', '_RAW': '$GPGGA,022712.50,3444.4822177,S,07109.4054084,W,2,10,0.8,216.090,M,24.30,M,,*5D\r\n', 'latitude': '3444.4822177S', 'valid': '2'}",GPS6000
null,04,1517624834.766505,"{'longitude': '07109.4054125W', 'grades_from_north': '51.137', 'utc': '022714.50', 'speed': '0.005', '_RAW': '$GPVTG,51.137,T,51.137,M,0.003,N,0.005,K,D*20\r\n', 'latitude': '3444.4822192S', 'valid': '2'}",GPS6000
null,04,1517624836.836434,"{'longitude': '07109.4054191W', 'grades_from_north': '47.536', 'utc': '022716.70', 'speed': '0.005', '_RAW': '$GPVTG,47.536,T,47.536,M,0.003,N,0.005,K,D*20\r\n', 'latitude': '3444.4822237S', 'valid': '2'}",GPS6000
null,04,1517624838.882483,"{'longitude': '07109.4054193W', 'grades_from_north': '47.746', 'utc': '022718.60', 'speed': '0.005', '_RAW': '$GPVTG,47.746,T,47.746,M,0.003,N,0.005,K,D*20\r\n', 'latitude': '3444.4822251S', 'valid': '2'}",GPS6000
null,04,1517624840.945449,"{'longitude': '07109.4054232W', 'grades_from_north': '41.955', 'utc': '022720.80', 'speed': '0.005', '_RAW': '$GPVTG,41.955,T,41.955,M,0.003,N,0.005,K,D*20\r\n', 'latitude': '3444.4822295S', 'valid': '2'}",GPS6000
null,04,1517624843.005947,"{'longitude': '07109.4054266W', 'grades_from_north': '35.139', 'utc': '022722.90', 'speed': '0.005', '_RAW': '$GPGGA,022722.90,3444.4822339,S,07109.4054266,W,2,10,0.8,216.053,M,24.30,M,,*5B\r\n', 'latitude': '3444.4822339S', 'valid': '2'}",GPS6000
null,04,1517624845.056333,"{'longitude': '07109.4054303W', 'grades_from_north': '31.269', 'utc': '022724.90', 'speed': '0.005', '_RAW': '$GPVTG,31.269,T,31.269,M,0.003,N,0.005,K,D*20\r\n', 'latitude': '3444.4822363S', 'valid': '2'}",GPS6000
null,04,1517624847.10805,"{'longitude': '07109.4054346W', 'grades_from_north': '32.104', 'utc': '022727.00', 'speed': '0.005', '_RAW': '$GPGGA,022727.00,3444.4822408,S,07109.4054346,W,2,10,0.8,216.042,M,24.30,M,,*51\r\n', 'latitude': '3444.4822408S', 'valid': '2'}",GPS6000
null,04,1517624849.17915,"{'longitude': '07109.4054402W', 'grades_from_north': '28.063', 'utc': '022729.10', 'speed': '0.005', '_RAW': '$GPVTG,28.063,T,28.063,M,0.003,N,0.005,K,D*20\r\n', 'latitude': '3444.4822467S', 'valid': '2'}",GPS6000
null,04,1517624851.31019,"{'longitude': '07109.4054405W', 'grades_from_north': '30.054', 'utc': '022731.20', 'speed': '0.005', '_RAW': '$GPVTG,30.054,T,30.054,M,0.002,N,0.005,K,D*21\r\n', 'latitude': '3444.4822472S', 'valid': '2'}",GPS6000
null,04,1517624853.352587,"{'longitude': '07109.4054443W', 'grades_from_north': '34.668', 'utc': '022733.20', 'speed': '0.004', '_RAW': '$GPGSV,5,1,17,51,35,308,40,44,27,299,,46,18,289,,48,14,287,*7D\r\n', 'latitude': '3444.4822504S', 'valid': '2'}",GPS6000
null,04,1517624855.413583,"{'longitude': '07109.4054483W', 'grades_from_north': '38.209', 'utc': '022735.20', 'speed': '0.004', '_RAW': '$GPGSV,5,4,17,16,13,102,37,19,09,287,32,01,08,016,,26,07,130,31*7C\r\n', 'latitude': '3444.4822535S', 'valid': '2'}",GPS6000
null,04,1517624857.464983,"{'longitude': '07109.4054513W', 'grades_from_north': '34.863', 'utc': '022737.20', 'speed': '0.005', '_RAW': '$GPGSV,5,5,17,17,04,309,*47\r\n', 'latitude': '3444.4822588S', 'valid': '2'}",GPS6000
null,04,1517624859.52447,"{'longitude': '07109.4054521W', 'grades_from_north': '35.418', 'utc': '022739.20', 'speed': '0.004', '_RAW': '$GPGSA,M,3,22,03,07,19,30,,,,,,,,3.4,2.1,2.6*31\r\n', 'latitude': '3444.4822577S', 'valid': '2'}",GPS6000
null,04,1517624861.58255,"{'longitude': '07109.4054571W', 'grades_from_north': '37.454', 'utc': '022741.40', 'speed': '0.003', '_RAW': '$GPGGA,022741.40,3444.4822611,S,07109.4054571,W,2,11,2.1,216.021,M,24.30,M,,*52\r\n', 'latitude': '3444.4822611S', 'valid': '2'}",GPS6000
null,04,1517624863.645746,"{'longitude': '07109.4054603W', 'grades_from_north': '15.275', 'utc': '022743.50', 'speed': '0.004', '_RAW': '$GPGGA,022743.50,3444.4822659,S,07109.4054603,W,2,11,2.1,216.014,M,24.30,M,,*5D\r\n', 'latitude': '3444.4822659S', 'valid': '2'}",GPS6000
null,04,1517624865.691479,"{'longitude': '07109.4054614W', 'grades_from_north': '35.651', 'utc': '022745.50', 'speed': '0.003', '_RAW': '$GPGGA,022745.50,3444.4822699,S,07109.4054614,W,2,11,2.1,216.011,M,24.30,M,,*54\r\n', 'latitude': '3444.4822699S', 'valid': '2'}",GPS6000
null,04,1517624867.746495,"{'longitude': '07109.4054663W', 'grades_from_north': '34.819', 'utc': '022747.60', 'speed': '0.003', '_RAW': '$GPGGA,022747.60,3444.4822734,S,07109.4054663,W,2,11,2.1,216.002,M,24.30,M,,*51\r\n', 'latitude': '3444.4822734S', 'valid': '2'}",GPS6000
null,04,1517624869.815536,"{'longitude': '07109.4054700W', 'grades_from_north': '48.692', 'utc': '022749.70', 'speed': '0.002', '_RAW': '$GPVTG,48.692,T,48.692,M,0.001,N,0.002,K,D*25\r\n', 'latitude': '3444.4822788S', 'valid': '2'}",GPS6000
null,04,1517624871.878227,"{'longitude': '07109.4054689W', 'grades_from_north': '41.820', 'utc': '022751.70', 'speed': '0.002', '_RAW': '$GPVTG,41.820,T,41.820,M,0.001,N,0.002,K,D*25\r\n', 'latitude': '3444.4822787S', 'valid': '2'}",GPS6000
null,04,1517624873.929783,"{'longitude': '07109.4054702W', 'grades_from_north': '71.053', 'utc': '022753.80', 'speed': '0.003', '_RAW': '$GPVTG,71.053,T,71.053,M,0.002,N,0.003,K,D*27\r\n', 'latitude': '3444.4822819S', 'valid': '2'}",GPS6000
null,04,1517624875.999501,"{'longitude': '07109.4054750W', 'grades_from_north': '90.517', 'utc': '022755.80', 'speed': '0.003', '_RAW': '$GPVTG,90.517,T,90.517,M,0.002,N,0.003,K,D*27\r\n', 'latitude': '3444.4822872S', 'valid': '2'}",GPS6000
null,04,1517624878.054652,"{'longitude': '07109.4054773W', 'grades_from_north': '99.887', 'utc': '022757.90', 'speed': '0.002', '_RAW': '$GPVTG,99.887,T,99.887,M,0.001,N,0.002,K,D*25\r\n', 'latitude': '3444.4822912S', 'valid': '2'}",GPS6000
null,04,1517624880.122039,"{'longitude': '07109.4054791W', 'grades_from_north': '92.382', 'utc': '022800.00', 'speed': '0.003', '_RAW': '$GPGGA,022800.00,3444.4822956,S,07109.4054791,W,2,10,0.8,215.981,M,24.30,M,,*56\r\n', 'latitude': '3444.4822956S', 'valid': '2'}",GPS6000
null,04,1517624882.183474,"{'longitude': '07109.4054785W', 'grades_from_north': '84.106', 'utc': '022802.00', 'speed': '0.003', '_RAW': '$GPVTG,84.106,T,84.106,M,0.001,N,0.003,K,D*24\r\n', 'latitude': '3444.4822933S', 'valid': '2'}",GPS6000
null,04,1517624884.225044,"{'longitude': '07109.4054815W', 'grades_from_north': '88.292', 'utc': '022804.10', 'speed': '0.003', '_RAW': '$GPVTG,88.292,T,88.292,M,0.001,N,0.003,K,D*24\r\n', 'latitude': '3444.4822983S', 'valid': '2'}",GPS6000
null,04,1517624886.349967,"{'longitude': '07109.4054839W', 'grades_from_north': '96.037', 'utc': '022806.20', 'speed': '0.002', '_RAW': '$GPGSV,5,1,17,51,35,308,39,44,27,299,43,46,18,289,,48,14,287,*74\r\n', 'latitude': '3444.4823008S', 'valid': '2'}",GPS6000
null,04,1517624888.434777,"{'longitude': '07109.4054802W', 'grades_from_north': '99.370', 'utc': '022808.20', 'speed': '0.002', '_RAW': '$GPGSV,5,4,17,16,13,102,36,19,09,287,32,01,08,016,,26,07,130,33*7F\r\n', 'latitude': '3444.4823054S', 'valid': '2'}",GPS6000
null,04,1517624890.482555,"{'longitude': '07109.4054866W', 'grades_from_north': '358.951', 'utc': '022810.20', 'speed': '0.002', '_RAW': '$GPGSA,M,3,22,03,07,19,30,,,,,,,,3.4,2.1,2.6*31\r\n', 'latitude': '3444.4823225S', 'valid': '2'}",GPS6000
null,04,1517624892.543552,"{'longitude': '07109.4054925W', 'grades_from_north': '290.714', 'utc': '022812.20', 'speed': '0.004', '_RAW': '$GPGSV,5,5,17,17,04,309,*47\r\n', 'latitude': '3444.4823420S', 'valid': '2'}",GPS6000
null,04,1517624894.601072,"{'longitude': '07109.4054944W', 'grades_from_north': '308.485', 'utc': '022814.30', 'speed': '0.003', '_RAW': '$GPGGA,022814.30,3444.4823463,S,07109.4054944,W,2,11,2.1,215.957,M,24.30,M,,*5D\r\n', 'latitude': '3444.4823463S', 'valid': '2'}",GPS6000
null,04,1517624896.661625,"{'longitude': '07109.4054943W', 'grades_from_north': '287.014', 'utc': '022816.40', 'speed': '0.002', '_RAW': '$GPVTG,287.014,T,287.014,M,0.001,N,0.002,K,D*25\r\n', 'latitude': '3444.4823528S', 'valid': '2'}",GPS6000
null,04,1517624898.73141,"{'longitude': '07109.4054963W', 'grades_from_north': '289.896', 'utc': '022818.50', 'speed': '0.002', '_RAW': '$GPVTG,289.896,T,289.896,M,0.001,N,0.002,K,D*25\r\n', 'latitude': '3444.4823515S', 'valid': '2'}",GPS6000
null,04,1517624900.789501,"{'longitude': '07109.4054971W', 'grades_from_north': '305.710', 'utc': '022820.60', 'speed': '0.003', '_RAW': '$GPVTG,305.710,T,305.710,M,0.001,N,0.003,K,D*24\r\n', 'latitude': '3444.4823538S', 'valid': '2'}",GPS6000
null,04,1517624902.852798,"{'longitude': '07109.4054984W', 'grades_from_north': '296.183', 'utc': '022822.70', 'speed': '0.002', '_RAW': '$GPGGA,022822.70,3444.4823574,S,07109.4054984,W,2,11,2.1,215.953,M,24.30,M,,*53\r\n', 'latitude': '3444.4823574S', 'valid': '2'}",GPS6000
null,04,1517624904.914016,"{'longitude': '07109.4054989W', 'grades_from_north': '293.975', 'utc': '022824.80', 'speed': '0.002', '_RAW': '$GPGGA,022824.80,3444.4823632,S,07109.4054989,W,2,11,2.1,215.947,M,24.30,M,,*53\r\n', 'latitude': '3444.4823632S', 'valid': '2'}",GPS6000
null,04,1517624906.975837,"{'longitude': '07109.4054999W', 'grades_from_north': '288.968', 'utc': '022826.80', 'speed': '0.001', '_RAW': '$GPVTG,288.968,T,288.968,M,0.001,N,0.001,K,D*26\r\n', 'latitude': '3444.4823677S', 'valid': '2'}",GPS6000
null,04,1517624909.037515,"{'longitude': '07109.4055008W', 'grades_from_north': '287.746', 'utc': '022828.90', 'speed': '0.001', '_RAW': '$GPGGA,022828.90,3444.4823690,S,07109.4055008,W,2,10,0.8,215.944,M,24.30,M,,*5E\r\n', 'latitude': '3444.4823690S', 'valid': '2'}",GPS6000
null,04,1517624911.102306,"{'longitude': '07109.4055017W', 'grades_from_north': '14.164', 'utc': '022831.00', 'speed': '0.000', '_RAW': '$GPGGA,022831.00,3444.4823694,S,07109.4055017,W,2,11,2.2,215.948,M,24.30,M,,*50\r\n', 'latitude': '3444.4823694S', 'valid': '2'}",GPS6000
null,04,1517624913.143675,"{'longitude': '07109.4055014W', 'grades_from_north': '23.494', 'utc': '022833.00', 'speed': '0.001', '_RAW': '$GPVTG,23.494,T,23.494,M,0.000,N,0.001,K,D*27\r\n', 'latitude': '3444.4823729S', 'valid': '2'}",GPS6000
null,04,1517624915.326941,"{'longitude': '07109.4054946W', 'grades_from_north': '63.619', 'utc': '022835.20', 'speed': '0.001', '_RAW': '$GPGSV,5,3,17,03,39,074,45,30,20,338,37,22,20,064,41,02,16,223,42*7A\r\n', 'latitude': '3444.4823790S', 'valid': '2'}",GPS6000
null,04,1517624917.399749,"{'longitude': '07109.4054957W', 'grades_from_north': '94.668', 'utc': '022837.20', 'speed': '0.001', '_RAW': '$GPGSV,5,2,17,09,65,223,48,23,52,140,48,06,45,247,49,07,44,348,47*72\r\n', 'latitude': '3444.4823827S', 'valid': '2'}",GPS6000
null,04,1517624919.452104,"{'longitude': '07109.4054956W', 'grades_from_north': '93.687', 'utc': '022839.20', 'speed': '0.001', '_RAW': '$GPGSV,5,3,17,03,39,074,45,30,20,338,37,22,20,064,41,02,16,223,42*7A\r\n', 'latitude': '3444.4823846S', 'valid': '2'}",GPS6000
null,04,1517624921.51678,"{'longitude': '07109.4054939W', 'grades_from_north': '125.574', 'utc': '022841.20', 'speed': '0.002', '_RAW': '$GPGSV,5,5,17,17,03,309,*40\r\n', 'latitude': '3444.4823865S', 'valid': '2'}",GPS6000
null,04,1517624923.585606,"{'longitude': '07109.4054944W', 'grades_from_north': '101.941', 'utc': '022843.30', 'speed': '0.002', '_RAW': '$GPVTG,101.941,T,101.941,M,0.001,N,0.002,K,D*25\r\n', 'latitude': '3444.4823880S', 'valid': '2'}",GPS6000
null,04,1517624925.636832,"{'longitude': '07109.4054886W', 'grades_from_north': '161.418', 'utc': '022845.40', 'speed': '0.005', '_RAW': '$GPGGA,022845.40,3444.4824028,S,07109.4054886,W,2,11,2.2,215.954,M,24.30,M,,*5D\r\n', 'latitude': '3444.4824028S', 'valid': '2'}",GPS6000
null,04,1517624927.690437,"{'longitude': '07109.4054889W', 'grades_from_north': '157.536', 'utc': '022847.50', 'speed': '0.004', '_RAW': '$GPGGA,022847.50,3444.4824057,S,07109.4054889,W,2,10,2.2,215.949,M,24.30,M,,*54\r\n', 'latitude': '3444.4824057S', 'valid': '2'}",GPS6000
null,04,1517624929.755455,"{'longitude': '07109.4054880W', 'grades_from_north': '152.384', 'utc': '022849.50', 'speed': '0.003', '_RAW': '$GPVTG,152.384,T,152.384,M,0.002,N,0.003,K,D*27\r\n', 'latitude': '3444.4824091S', 'valid': '2'}",GPS6000
null,04,1517624931.813008,"{'longitude': '07109.4054866W', 'grades_from_north': '136.335', 'utc': '022851.70', 'speed': '0.002', '_RAW': '$GPVTG,136.335,T,136.335,M,0.001,N,0.002,K,D*25\r\n', 'latitude': '3444.4824109S', 'valid': '2'}",GPS6000
null,04,1517624933.883103,"{'longitude': '07109.4054851W', 'grades_from_north': '114.464', 'utc': '022853.70', 'speed': '0.002', '_RAW': '$GPVTG,114.464,T,114.464,M,0.001,N,0.002,K,D*25\r\n', 'latitude': '3444.4824106S', 'valid': '2'}",GPS6000
null,04,1517624935.94207,"{'longitude': '07109.4054849W', 'grades_from_north': '126.133', 'utc': '022855.80', 'speed': '0.002', '_RAW': '$GPVTG,126.133,T,126.133,M,0.001,N,0.002,K,D*25\r\n', 'latitude': '3444.4824159S', 'valid': '2'}",GPS6000
null,04,1517624938.007632,"{'longitude': '07109.4054795W', 'grades_from_north': '152.705', 'utc': '022857.90', 'speed': '0.002', '_RAW': '$GPGGA,022857.90,3444.4824283,S,07109.4054795,W,2,10,0.8,215.955,M,24.30,M,,*55\r\n', 'latitude': '3444.4824283S', 'valid': '2'}",GPS6000
null,04,1517624940.074066,"{'longitude': '07109.4054777W', 'grades_from_north': '62.565', 'utc': '022859.90', 'speed': '0.000', '_RAW': '$GPVTG,62.565,T,62.565,M,0.000,N,0.000,K,D*26\r\n', 'latitude': '3444.4824323S', 'valid': '2'}",GPS6000
null,04,1517624942.11535,"{'longitude': '07109.4054739W', 'grades_from_north': '126.422', 'utc': '022902.00', 'speed': '0.001', '_RAW': '$GPVTG,126.422,T,126.422,M,0.000,N,0.001,K,D*27\r\n', 'latitude': '3444.4824365S', 'valid': '2'}",GPS6000
null,04,1517624944.166996,"{'longitude': '07109.4054692W', 'grades_from_north': '97.692', 'utc': '022904.00', 'speed': '0.001', '_RAW': '$GPVTG,97.692,T,97.692,M,0.001,N,0.001,K,D*26\r\n', 'latitude': '3444.4824408S', 'valid': '2'}",GPS6000
null,04,1517624946.222691,"{'longitude': '07109.4054689W', 'grades_from_north': '62.707', 'utc': '022906.10', 'speed': '0.001', '_RAW': '$GPVTG,62.707,T,62.707,M,0.000,N,0.001,K,D*27\r\n', 'latitude': '3444.4824443S', 'valid': '2'}",GPS6000
null,04,1517624948.268356,"{'longitude': '07109.4054665W', 'grades_from_north': '81.183', 'utc': '022908.10', 'speed': '0.002', '_RAW': '$GPVTG,81.183,T,81.183,M,0.001,N,0.002,K,D*25\r\n', 'latitude': '3444.4824440S', 'valid': '2'}",GPS6000
null,04,1517624950.320893,"{'longitude': '07109.4054652W', 'grades_from_north': '57.139', 'utc': '022910.20', 'speed': '0.001', '_RAW': '$GPVTG,57.139,T,57.139,M,0.001,N,0.001,K,D*26\r\n', 'latitude': '3444.4824492S', 'valid': '2'}",GPS6000
null,04,1517624952.378259,"{'longitude': '07109.4054617W', 'grades_from_north': '115.345', 'utc': '022912.20', 'speed': '0.001', '_RAW': '$GPGSV,5,1,17,51,35,308,40,44,27,299,,46,18,289,,48,14,287,*7D\r\n', 'latitude': '3444.4824530S', 'valid': '2'}",GPS6000
null,04,1517624954.445099,"{'longitude': '07109.4054578W', 'grades_from_north': '79.243', 'utc': '022914.20', 'speed': '0.002', '_RAW': '$GPGSV,5,3,17,03,39,073,45,30,21,338,37,22,19,063,41,02,16,223,42*71\r\n', 'latitude': '3444.4824569S', 'valid': '2'}",GPS6000
null,04,1517624956.516448,"{'longitude': '07109.4054562W', 'grades_from_north': '54.744', 'utc': '022916.20', 'speed': '0.002', '_RAW': '$GPGSA,M,3,02,06,16,22,03,26,07,09,23,30,,,1.5,0.8,1.3*38\r\n', 'latitude': '3444.4824605S', 'valid': '2'}",GPS6000
null,04,1517624958.571999,"{'longitude': '07109.4054548W', 'grades_from_north': '79.604', 'utc': '022918.40', 'speed': '0.002', '_RAW': '$GPGGA,022918.40,3444.4824612,S,07109.4054548,W,2,10,0.8,215.943,M,24.30,M,,*5B\r\n', 'latitude': '3444.4824612S', 'valid': '2'}",GPS6000
null,04,1517624960.628102,"{'longitude': '07109.4054523W', 'grades_from_north': '91.572', 'utc': '022920.50', 'speed': '0.002', '_RAW': '$GPGGA,022920.50,3444.4824643,S,07109.4054523,W,2,10,0.8,215.946,M,24.30,M,,*5D\r\n', 'latitude': '3444.4824643S', 'valid': '2'}",GPS6000
null,04,1517624962.679827,"{'longitude': '07109.4054480W', 'grades_from_north': '118.398', 'utc': '022922.40', 'speed': '0.002', '_RAW': '$GPVTG,118.398,T,118.398,M,0.001,N,0.002,K,D*25\r\n', 'latitude': '3444.4824708S', 'valid': '2'}",GPS6000
null,04,1517624964.740918,"{'longitude': '07109.4054449W', 'grades_from_north': '113.072', 'utc': '022924.60', 'speed': '0.003', '_RAW': '$GPVTG,113.072,T,113.072,M,0.002,N,0.003,K,D*27\r\n', 'latitude': '3444.4824742S', 'valid': '2'}",GPS6000
null,04,1517624966.804663,"{'longitude': '07109.4054404W', 'grades_from_north': '111.395', 'utc': '022926.60', 'speed': '0.003', '_RAW': '$GPGGA,022926.60,3444.4824768,S,07109.4054404,W,2,10,0.8,215.934,M,24.30,M,,*51\r\n', 'latitude': '3444.4824768S', 'valid': '2'}",GPS6000
null,04,1517624968.871504,"{'longitude': '07109.4054380W', 'grades_from_north': '106.561', 'utc': '022928.70', 'speed': '0.003', '_RAW': '$GPVTG,106.561,T,106.561,M,0.002,N,0.003,K,D*27\r\n', 'latitude': '3444.4824814S', 'valid': '2'}",GPS6000
null,04,1517624970.934114,"{'longitude': '07109.4054368W', 'grades_from_north': '116.412', 'utc': '022930.80', 'speed': '0.004', '_RAW': '$GPVTG,116.412,T,116.412,M,0.002,N,0.004,K,D*20\r\n', 'latitude': '3444.4824834S', 'valid': '2'}",GPS6000
null,04,1517624973.068733,"{'longitude': '07109.4054317W', 'grades_from_north': '99.608', 'utc': '022933.00', 'speed': '0.004', '_RAW': '$GPVTG,99.608,T,99.608,M,0.002,N,0.004,K,D*20\r\n', 'latitude': '3444.4824847S', 'valid': '2'}",GPS6000
null,04,1517624975.325711,"{'longitude': '07109.4054285W', 'grades_from_north': '101.664', 'utc': '022935.20', 'speed': '0.005', '_RAW': '$GPGSV,5,1,17,51,35,308,39,44,27,299,,46,18,289,,48,14,287,*73\r\n', 'latitude': '3444.4824906S', 'valid': '2'}",GPS6000
null,04,1517624977.406375,"{'longitude': '07109.4054261W', 'grades_from_north': '103.040', 'utc': '022937.30', 'speed': '0.003', '_RAW': '$GPGGA,022937.30,3444.4824954,S,07109.4054261,W,2,10,0.8,215.923,M,24.30,M,,*56\r\n', 'latitude': '3444.4824954S', 'valid': '2'}",GPS6000
null,04,1517624979.518333,"{'longitude': '07109.4054204W', 'grades_from_north': '103.353', 'utc': '022939.20', 'speed': '0.008', '_RAW': '$GPGSV,5,5,17,17,03,309,*40\r\n', 'latitude': '3444.4824984S', 'valid': '2'}",GPS6000
null,04,1517624981.563938,"{'longitude': '07109.4054147W', 'grades_from_north': '96.832', 'utc': '022941.30', 'speed': '0.005', '_RAW': '$GPVTG,96.832,T,96.832,M,0.003,N,0.005,K,D*20\r\n', 'latitude': '3444.4825027S', 'valid': '2'}",GPS6000
null,04,1517624983.625992,"{'longitude': '07109.4054186W', 'grades_from_north': '109.115', 'utc': '022943.40', 'speed': '0.006', '_RAW': '$GPGGA,022943.40,3444.4825011,S,07109.4054186,W,2,10,0.8,215.913,M,24.30,M,,*52\r\n', 'latitude': '3444.4825011S', 'valid': '2'}",GPS6000
null,04,1517624985.688836,"{'longitude': '07109.4054133W', 'grades_from_north': '111.643', 'utc': '022945.50', 'speed': '0.004', '_RAW': '$GPGGA,022945.50,3444.4825066,S,07109.4054133,W,2,10,0.8,215.906,M,24.30,M,,*5F\r\n', 'latitude': '3444.4825066S', 'valid': '2'}",GPS6000
null,04,1517624987.740863,"{'longitude': '07109.4054102W', 'grades_from_north': '108.094', 'utc': '022947.50', 'speed': '0.002', '_RAW': '$GPVTG,108.094,T,108.094,M,0.001,N,0.002,K,D*25\r\n', 'latitude': '3444.4825115S', 'valid': '2'}",GPS6000
null,04,1517624989.812493,"{'longitude': '07109.4054032W', 'grades_from_north': '99.810', 'utc': '022949.70', 'speed': '0.004', '_RAW': '$GPGGA,022949.70,3444.4825165,S,07109.4054032,W,2,10,0.8,215.895,M,24.30,M,,*58\r\n', 'latitude': '3444.4825165S', 'valid': '2'}",GPS6000
null,04,1517624991.867069,"{'longitude': '07109.4053993W', 'grades_from_north': '82.759', 'utc': '022951.70', 'speed': '0.004', '_RAW': '$GPVTG,82.759,T,82.759,M,0.002,N,0.004,K,D*20\r\n', 'latitude': '3444.4825201S', 'valid': '2'}",GPS6000
null,04,1517624993.931146,"{'longitude': '07109.4053959W', 'grades_from_north': '85.313', 'utc': '022953.80', 'speed': '0.003', '_RAW': '$GPGGA,022953.80,3444.4825232,S,07109.4053959,W,2,10,0.8,215.889,M,24.30,M,,*53\r\n', 'latitude': '3444.4825232S', 'valid': '2'}",GPS6000
null,04,1517624995.993101,"{'longitude': '07109.4053966W', 'grades_from_north': '61.216', 'utc': '022955.90', 'speed': '0.003', '_RAW': '$GPGGA,022955.90,3444.4825231,S,07109.4053966,W,2,10,0.8,215.893,M,24.30,M,,*50\r\n', 'latitude': '3444.4825231S', 'valid': '2'}",GPS6000
null,04,1517624998.063581,"{'longitude': '07109.4053937W', 'grades_from_north': '102.354', 'utc': '022957.90', 'speed': '0.002', '_RAW': '$GPVTG,102.354,T,102.354,M,0.001,N,0.002,K,D*25\r\n', 'latitude': '3444.4825277S', 'valid': '2'}",GPS6000
null,04,1517625000.133436,"{'longitude': '07109.4053891W', 'grades_from_north': '99.904', 'utc': '023000.00', 'speed': '0.001', '_RAW': '$GPGGA,023000.00,3444.4825296,S,07109.4053891,W,2,10,0.8,215.885,M,24.30,M,,*52\r\n', 'latitude': '3444.4825296S', 'valid': '2'}",GPS6000
null,04,1517625002.20584,"{'longitude': '07109.4053841W', 'grades_from_north': '55.991', 'utc': '023002.10', 'speed': '0.001', '_RAW': '$GPGGA,023002.10,3444.4825313,S,07109.4053841,W,2,10,0.8,215.888,M,24.30,M,,*5D\r\n', 'latitude': '3444.4825313S', 'valid': '2'}",GPS6000
null,04,1517625004.269493,"{'longitude': '07109.4053806W', 'grades_from_north': '359.892', 'utc': '023004.10', 'speed': '0.002', '_RAW': '$GPVTG,359.892,T,359.892,M,0.001,N,0.002,K,D*25\r\n', 'latitude': '3444.4825343S', 'valid': '2'}",GPS6000
null,04,1517625006.327355,"{'longitude': '07109.4053782W', 'grades_from_north': '349.527', 'utc': '023006.20', 'speed': '0.003', '_RAW': '$GPGGA,023006.20,3444.4825367,S,07109.4053782,W,2,10,0.8,215.883,M,24.30,M,,*52\r\n', 'latitude': '3444.4825367S', 'valid': '2'}",GPS6000
null,04,1517625008.386308,"{'longitude': '07109.4053776W', 'grades_from_north': '337.374', 'utc': '023008.20', 'speed': '0.003', '_RAW': '$GPVTG,337.374,T,337.374,M,0.002,N,0.003,K,D*27\r\n', 'latitude': '3444.4825363S', 'valid': '2'}",GPS6000
null,04,1517625010.445132,"{'longitude': '07109.4053741W', 'grades_from_north': '325.837', 'utc': '023010.20', 'speed': '0.003', '_RAW': '$GPGSV,5,5,17,17,03,310,*48\r\n', 'latitude': '3444.4825395S', 'valid': '2'}",GPS6000
null,04,1517625012.517478,"{'longitude': '07109.4053697W', 'grades_from_north': '340.496', 'utc': '023012.20', 'speed': '0.002', '_RAW': '$GPGSA,M,3,02,06,16,22,03,26,07,09,23,30,,,1.6,0.8,1.3*3B\r\n', 'latitude': '3444.4825429S', 'valid': '2'}",GPS6000
null,04,1517625014.576166,"{'longitude': '07109.4053670W', 'grades_from_north': '348.447', 'utc': '023014.30', 'speed': '0.003', '_RAW': '$GPGGA,023014.30,3444.4825442,S,07109.4053670,W,2,10,0.8,215.879,M,24.30,M,,*59\r\n', 'latitude': '3444.4825442S', 'valid': '2'}",GPS6000
null,04,1517625016.646743,"{'longitude': '07109.4053632W', 'grades_from_north': '357.218', 'utc': '023016.40', 'speed': '0.003', '_RAW': '$GPGGA,023016.40,3444.4825469,S,07109.4053632,W,2,10,0.8,215.879,M,24.30,M,,*53\r\n', 'latitude': '3444.4825469S', 'valid': '2'}",GPS6000
null,04,1517625018.706325,"{'longitude': '07109.4053647W', 'grades_from_north': '329.092', 'utc': '023018.40', 'speed': '0.002', '_RAW': '$GPVTG,329.092,T,329.092,M,0.001,N,0.002,K,D*25\r\n', 'latitude': '3444.4825470S', 'valid': '2'}",GPS6000
null,04,1517625020.780156,"{'longitude': '07109.4053606W', 'grades_from_north': '26.196', 'utc': '023020.60', 'speed': '0.001', '_RAW': '$GPVTG,26.196,T,26.196,M,0.000,N,0.001,K,D*27\r\n', 'latitude': '3444.4825497S', 'valid': '2'}",GPS6000
null,04,1517625022.84198,"{'longitude': '07109.4053567W', 'grades_from_north': '43.632', 'utc': '023022.60', 'speed': '0.002', '_RAW': '$GPVTG,43.632,T,43.632,M,0.001,N,0.002,K,D*25\r\n', 'latitude': '3444.4825508S', 'valid': '2'}",GPS6000
null,04,1517625024.914296,"{'longitude': '07109.4053535W', 'grades_from_north': '69.344', 'utc': '023024.80', 'speed': '0.001', '_RAW': '$GPGGA,023024.80,3444.4825540,S,07109.4053535,W,2,10,0.8,215.876,M,24.30,M,,*5F\r\n', 'latitude': '3444.4825540S', 'valid': '2'}",GPS6000
null,04,1517625026.963756,"{'longitude': '07109.4053504W', 'grades_from_north': '110.416', 'utc': '023026.80', 'speed': '0.001', '_RAW': '$GPVTG,110.416,T,110.416,M,0.000,N,0.001,K,D*27\r\n', 'latitude': '3444.4825581S', 'valid': '2'}",GPS6000
null,04,1517625029.028578,"{'longitude': '07109.4053467W', 'grades_from_north': '102.114', 'utc': '023028.80', 'speed': '0.001', '_RAW': '$GPVTG,102.114,T,102.114,M,0.001,N,0.001,K,D*26\r\n', 'latitude': '3444.4825598S', 'valid': '2'}",GPS6000
null,04,1517625031.083537,"{'longitude': '07109.4053460W', 'grades_from_north': '87.489', 'utc': '023030.90', 'speed': '0.002', '_RAW': '$GPGGA,023030.90,3444.4825580,S,07109.4053460,W,2,10,0.8,215.877,M,24.30,M,,*57\r\n', 'latitude': '3444.4825580S', 'valid': '2'}",GPS6000
